~Version information
  VERS.                            1.20: CWLS LAS  -  VERSION 1.20
  WRAP.                              NO: One line per depth step
~Well information
# MNEM.UNIT
# ====.================================:===================
  STRT.M                        3666.30: First depth in file
  STOP.M                        4629.70: Last depth in file
  STEP.M                           0.10: Depth increment
  NULL.                         -999.25: Null values
  COMP.                         COMPANY:
  WELL.                            WELL: Well-001
  FLD .                           FIELD:
  CNTY.                          COUNTY:
  STAT.                           STATE: RUSSIA
  SRVC.                 SERVICE COMPANY:
~Parametr information block
# MNEM.UNIT
# ====.================================:===================
~Other information
# ------------------------- REMARKS  AREA ------------------
~Curve information
# MNEM.UNIT
# ====.================================:===================
  DEPT.M                               : Depth curve
  VSH .dec                             : VSH
  PHIE.dec                             : PHIE
  PHIT.dec                             : PHIT
  RL  .Ohmm                            : RL
  SP  .mV                              : SP
  NGL (23.09.86).c.u.                  : NGL (23.09.86)
  LL  .Ohmm                            : LL
  GR (23.09.86).mkR/h                  : GR (23.09.86)
  SW  .dec                             : SW
  RL4 .Ohmm                            : RL4
  RL8 .Ohmm                            : RL8
  GR (17.06.17).mkR/h                  : GR (17.06.17)
  NGL.c.u.                             : NGL 
  vHD.dec                              : vhd
  bvw.dec                              : BVW
  CBW .dec                             :
~ASCII       VSH     PHIE     PHIT       RL       SP    NGL (23.     LL   GR (23.0    SW      RL4      RL8     GR (17.0  NGL       VHD    BVW      CBW
# ...
 4617.90    0.129    0.224    0.273    8.797  -18.403    0.678    4.306    6.193    0.867   15.217   16.349    2.129    0.703    0.030    0.194    0.057 
 4618.00    0.137    0.222    0.274    8.645  -18.983    0.675    4.735    6.133    0.846   14.409   16.119    2.223    0.708    0.034    0.188    0.059 
 4618.10    0.139    0.223    0.274    8.570  -19.513    0.672    5.109    6.069    0.827   14.080   16.101    2.294    0.700    0.038    0.184    0.060 
 4618.20    0.119    0.229    0.271    8.697  -19.740    0.669    5.576    6.019    0.796   13.398   16.082    2.172    0.704    0.047    0.183    0.058 
 4618.30    0.134    0.222    0.270    8.824  -20.320    0.636    5.409    5.945    0.815   13.549   16.160    2.138    0.720    0.041    0.181    0.057 
 4618.40    0.130    0.224    0.271    9.104  -20.572    0.607    4.727    5.726    0.845   14.304   16.238    2.211    0.715    0.035    0.189    0.059 
 4618.50    0.138    0.218    0.271    9.384  -21.052    0.606    4.179    5.231    0.886   14.833   16.258    2.236    0.712    0.025    0.194    0.059 
 4618.60    0.105    0.232    0.270    9.638  -21.329    0.609    3.896    4.992    0.880   15.084   16.277    2.081    0.713    0.028    0.204    0.056 
 4618.70   -0.016    0.271    0.269   10.680  -21.833    0.613    3.844    4.803    0.820   15.461   16.297  -999.25    0.719    0.049    0.222  -999.25 
 4618.80   -0.016    0.273    0.268   11.670  -22.363    0.617    4.070    4.750    0.804   15.183   16.317  -999.25    0.720    0.054    0.220  -999.25 
 4618.90  -999.25    0.270    0.268   12.051  -23.019    0.616    4.180    4.689    0.802   14.451   16.318  -999.25    0.728    0.054    0.217  -999.25 
 4619.00  -999.25    0.271    0.267   12.001  -23.700    0.617    4.252    4.657    0.798   13.592   16.318  -999.25    0.723    0.055    0.216  -999.25 
 4619.10  -999.25    0.271    0.266   11.849  -23.953    0.619    4.434    4.629    0.789   13.339   16.204  -999.25    0.733    0.057    0.213  -999.25 
 4619.20  -999.25    0.274    0.266   11.849  -24.886    0.621    4.597    4.574    0.777   12.531   16.090  -999.25    0.725    0.061    0.213  -999.25 
 4619.30  -999.25    0.273    0.265   12.129  -25.795    0.623    5.221    4.429    0.752   12.505   16.110  -999.25    0.735    0.068    0.205  -999.25 
 4619.40  -999.25    0.275    0.265   12.739  -27.208    0.627    5.952    4.317    0.725   12.617   16.130  -999.25    0.734    0.076    0.200  -999.25 
 4619.50  -999.25    0.276    0.267   13.273  -27.738    0.633    7.224    4.224    0.691   12.755   16.322  -999.25    0.734    0.085    0.191  -999.25 
 4619.60  -999.25    0.280    0.268   14.314  -28.319    0.654    8.188    4.146    0.669   12.893   16.515  -999.25    0.723    0.093    0.187  -999.25 
 4619.70  -999.25    0.280    0.268   14.822  -28.874    0.664    8.425    4.082    0.664   13.156   16.747  -999.25    0.726    0.094    0.186  -999.25 
 4619.80  -999.25    0.279    0.270   15.356  -29.378    0.676    8.236    3.883    0.668   13.181   16.978  -999.25    0.719    0.092    0.186  -999.25 
 4619.90  -999.25    0.276    0.272   15.915  -29.958    0.686    8.082    3.774    0.673   13.457   17.036  -999.25    0.715    0.090    0.186  -999.25 
 4620.00  -999.25    0.278    0.274   16.220  -30.488    0.696    7.620    3.722    0.681   13.481   17.094  -999.25    0.703    0.089    0.189  -999.25 
 4620.10  -999.25    0.275    0.274   16.931  -30.766    0.706    7.145    3.638    0.694   13.505   17.269  -999.25    0.703    0.084    0.191  -999.25 
 4620.20  -999.25    0.276    0.272   17.515  -31.295    0.725    6.623    3.583    0.705   13.529   17.443  -999.25    0.706    0.081    0.195  -999.25 
 4620.30  -999.25    0.279    0.272   17.998  -31.800    0.751    6.486    3.488    0.706   13.478   17.387  -999.25    0.714    0.082    0.197  -999.25 
 4620.40  -999.25    0.277    0.271   18.303  -32.254    0.773    6.549    3.363    0.706   13.393   17.329  -999.25    0.709    0.081    0.196  -999.25 
 4620.50  -999.25  -999.25    0.270   18.608  -32.708    0.787    7.012    3.115  -999.25   13.308   17.118  -999.25    0.720  -999.25  -999.25  -999.25 
 4620.60  -999.25  -999.25    0.272   18.685  -32.935    0.795    7.741    3.055  -999.25   13.198   16.908  -999.25    0.714  -999.25  -999.25  -999.25 
 4620.70  -999.25  -999.25    0.273   18.406  -33.591    0.803    8.056    2.968  -999.25   12.944   16.792  -999.25    0.704  -999.25  -999.25  -999.25 
 4620.80  -999.25  -999.25  -999.25   18.102  -34.120    0.813    8.258    2.907  -999.25   12.691   16.678  -999.25    0.711  -999.25  -999.25  -999.25 
 4620.90  -999.25  -999.25  -999.25   17.823  -34.398    0.820    8.242    2.871  -999.25   12.488   16.390  -999.25  -999.25  -999.25  -999.25  -999.25 
 4621.00  -999.25  -999.25  -999.25   17.266  -35.382    0.827    8.401    2.839  -999.25   12.412   16.104  -999.25  -999.25  -999.25  -999.25  -999.25 
 4621.10  -999.25  -999.25  -999.25   17.139  -35.458    0.836    8.546    2.775  -999.25   12.411   16.085  -999.25  -999.25  -999.25  -999.25  -999.25 
 4621.20  -999.25  -999.25  -999.25   17.267  -36.012    0.843    8.894    2.712  -999.25   12.435   16.066  -999.25  -999.25  -999.25  -999.25  -999.25 
 4621.30  -999.25  -999.25  -999.25   17.648  -36.264    0.840    9.134    2.697  -999.25   12.484   16.163  -999.25  -999.25  -999.25  -999.25  -999.25 
 4621.40  -999.25  -999.25  -999.25   17.902  -36.794    0.836    9.435    2.701  -999.25   12.509   16.261  -999.25  -999.25  -999.25  -999.25  -999.25 
 4621.50  -999.25  -999.25  -999.25   18.207  -37.097    0.834    9.489    2.713  -999.25   12.546   16.279  -999.25  -999.25  -999.25  -999.25  -999.25 
 4621.60  -999.25  -999.25  -999.25   18.462  -37.323    0.832    9.471    2.729  -999.25   12.582   16.299  -999.25  -999.25  -999.25  -999.25  -999.25 
 4621.70  -999.25  -999.25  -999.25   18.487  -37.601    0.828    9.312    2.743  -999.25   12.607   16.512  -999.25  -999.25  -999.25  -999.25  -999.25 
 4621.80  -999.25  -999.25  -999.25   18.793  -37.878    0.824    9.120    2.767  -999.25   12.606   16.725  -999.25  -999.25  -999.25  -999.25  -999.25 
 4621.90  -999.25  -999.25  -999.25   18.920  -38.130    0.825    9.331    2.770  -999.25   12.605   16.821  -999.25  -999.25  -999.25  -999.25  -999.25 
 4622.00  -999.25  -999.25  -999.25   18.997  -38.155    0.826    9.583    2.771  -999.25   12.604   16.919  -999.25  -999.25  -999.25  -999.25  -999.25 
 4622.10  -999.25  -999.25  -999.25   19.048  -38.432    0.828    9.547    2.774  -999.25   12.591   16.919  -999.25  -999.25  -999.25  -999.25  -999.25 
 4622.20  -999.25  -999.25  -999.25   19.049  -38.936    0.831    9.192    2.770  -999.25   12.577   16.919  -999.25  -999.25  -999.25  -999.25  -999.25 
 4622.30  -999.25  -999.25  -999.25   19.015  -39.517    0.835    8.214    2.761  -999.25   12.550   16.901  -999.25  -999.25  -999.25  -999.25  -999.25 
 4622.40  -999.25  -999.25  -999.25   18.982  -40.577    0.837    7.321    2.747  -999.25   12.499   16.882  -999.25  -999.25  -999.25  -999.25  -999.25 
 4622.50  -999.25  -999.25  -999.25   18.822  -41.334    0.840    6.890    2.734  -999.25   12.447   16.806  -999.25  -999.25  -999.25  -999.25  -999.25 
 4622.60  -999.25  -999.25  -999.25   18.543  -41.914    0.843    6.172    2.713  -999.25   12.396   16.730  -999.25  -999.25  -999.25  -999.25  -999.25 
 4622.70  -999.25  -999.25  -999.25   18.290  -42.495    0.845    5.842    2.699  -999.25   12.344   16.462  -999.25  -999.25  -999.25  -999.25  -999.25 
 4622.80  -999.25  -999.25  -999.25   17.656  -43.150    0.844    5.943    2.654  -999.25   12.268   16.194  -999.25  -999.25  -999.25  -999.25  -999.25 
 4622.90  -999.25  -999.25  -999.25   17.352  -43.453    0.838    6.057    2.595  -999.25   12.153   16.137  -999.25  -999.25  -999.25  -999.25  -999.25 
 4623.00  -999.25  -999.25  -999.25   17.023  -43.604    0.829    6.304    2.541  -999.25   12.013   16.079  -999.25  -999.25  -999.25  -999.25  -999.25 
