~Version information
  VERS.                            1.20: CWLS LAS  -  VERSION 1.20
  WRAP.                              NO: One line per depth step
~Well information
# MNEM.UNIT
# ====.================================:===================
  STRT.M                        3666.30: First depth in file
  STOP.M                        4629.70: Last depth in file
  STEP.M                           0.10: Depth increment
  NULL.                         -999.25: Null values
  COMP.                         COMPANY:
  WELL.                            WELL: Well-001
  FLD .                           FIELD:
  CNTY.                          COUNTY:
  STAT.                           STATE: RUSSIA
  SRVC.                 SERVICE COMPANY:
~Parametr information block
# MNEM.UNIT
# ====.================================:===================
~Other information
# ------------------------- REMARKS  AREA ------------------
~Curve information
# MNEM.UNIT
# ====.================================:===================
  DEPT.M                               : Depth curve
  VSH .dec                             : VSH
  PHIE.dec                             : PHIE
  PHIT.dec                             : PHIT
  RL  .Ohmm                            : RL
  SP  .mV                              : SP
  NGL (23.09.86).c.u.                  : NGL (23.09.86)
  LL  .Ohmm                            : LL
  GR (23.09.86).mkR/h                  : GR (23.09.86)
  SW  .dec                             : SW
  RL4 .Ohmm                            : RL4
  RL8 .Ohmm                            : RL8
  GR (17.06.17).mkR/h                  : GR (17.06.17)
  NGL.c.u.                             : NGL 
  vHD.dec                              : vhd
  bvw.dec                              : BVW
  CBW .dec                             :
~ASCII       VSH     PHIE     PHIT       RL       SP    NGL (23.     LL   GR (23.0    SW      RL4      RL8     GR (17.0  NGL       VHD    BVW      CBW
# ...
 4368.30    0.153    0.182    0.228    4.951  -44.633    0.717    2.319    1.847    0.914    4.337    3.950    2.506    0.753    0.016    0.166    0.065 
 4368.40    0.140    0.178    0.229    4.900  -44.633    0.719    2.319    1.926    0.894    4.237    3.950    2.523    0.749    0.019    0.159    0.065 
 4368.50    0.148    0.174    0.229    4.850  -44.632    0.723    2.314    1.951    0.898    4.126    3.970    2.452    0.747    0.018    0.157    0.064 
 4368.60    0.146    0.175    0.228    4.850  -44.632    0.725    2.318    2.041    0.889    4.070    3.989    2.375    0.747    0.019    0.156    0.062 
 4368.70    0.141    0.176    0.228    4.837  -44.543    0.727    2.331    2.096    0.877    3.964    3.997    2.381    0.749    0.022    0.154    0.062 
 4368.80    0.155    0.176    0.229    4.825  -44.454    0.729    2.349    2.149    0.884    3.858    4.005    2.383    0.750    0.020    0.156    0.062 
 4368.90    0.154    0.178    0.230    4.834  -44.302    0.731    2.371    2.201    0.861    3.793    4.029    2.379    0.748    0.025    0.153    0.062 
 4369.00    0.156    0.182    0.230    4.843  -44.149    0.734    2.407    2.203    0.859    3.737    4.052    2.455    0.745    0.026    0.156    0.064 
 4369.10    0.157    0.181    0.231    4.852  -43.895    0.734    2.457    2.264    0.860    3.616    4.052    2.514    0.744    0.025    0.156    0.065 
 4369.20    0.169    0.184    0.232    4.903  -43.642    0.733    2.504    2.296    0.876    3.546    4.052    2.526    0.745    0.023    0.161    0.065 
 4369.30    0.168    0.185    0.234    4.980  -43.109    0.732    2.518    2.354    0.872    3.495    4.075    2.567    0.743    0.024    0.162    0.066 
 4369.40    0.172    0.183    0.235    4.980  -42.855    0.730    2.556    2.409    0.877    3.450    4.099    2.643    0.740    0.023    0.161    0.068 
 4369.50    0.183    0.188    0.236    5.032  -42.373    0.727    2.556    2.467    0.900    3.425    4.142    2.701    0.736    0.019    0.169    0.069 
 4369.60    0.198    0.187    0.240    5.109  -41.941    0.726    2.537    2.499    0.936    3.420    4.184    2.763    0.737    0.012    0.175    0.071 
 4369.70    0.204    0.184    0.241    5.169  -41.434    0.726    2.532    2.590    0.959    3.420    4.273    2.885    0.734    0.008    0.176    0.073 
 4369.80    0.197    0.178    0.239    5.229  -41.104    0.725    2.490    2.645    0.953    3.420    4.361    3.015    0.725    0.008    0.169    0.076 
 4369.90    0.190    0.178    0.238    5.315  -40.317    0.724    2.425    2.735    0.952    3.425    4.404    3.072    0.727    0.009    0.170    0.077 
 4370.00    0.192    0.175    0.237    5.392  -39.911    0.724    2.406    2.816    0.958    3.481    4.446    3.038    0.731    0.007    0.168    0.077 
 4370.10    0.197    0.170    0.236    5.469  -39.505    0.724    2.443    2.896    0.956    3.531    4.532    2.987    0.733    0.007    0.163    0.076 
 4370.20    0.205    0.163    0.234    5.571  -39.124    0.722    2.541    2.970    0.962    3.638    4.617    2.981    0.734    0.006    0.157    0.075 
 4370.30    0.212    0.158    0.232    5.687  -38.743    0.722    2.639    3.035    0.942    3.754    4.733    3.025    0.736    0.009    0.149    0.076 
 4370.40    0.220    0.160    0.230    5.828  -38.363    0.721    2.699    3.080    0.927    3.855    4.849    3.094    0.739    0.012    0.148    0.078 
 4370.50    0.222    0.163    0.229    5.956  -37.677    0.720    2.761    3.149    0.919    4.017    4.969    3.165    0.743    0.013    0.149    0.080 
 4370.60    0.228    0.163    0.230    6.110  -37.094    0.718    2.824    4.252    0.923    4.118    5.088    3.227    0.746    0.013    0.150    0.081 
 4370.70    0.248    0.162    0.230    6.251  -36.333    0.717    2.829    5.532    0.955    4.229    5.317    3.273    0.746    0.007    0.155    0.082 
 4370.80    0.272    0.158    0.230    6.392  -35.521    0.717    2.803    5.645    0.984    4.335    5.544    3.311    0.746    0.002    0.156    0.083 
 4370.90    0.291    0.157    0.230    6.622  -34.760    0.717    2.787    5.697    1.000    4.441    6.191    3.452    0.746    0.000    0.157    0.086 
 4371.00    0.313    0.157    0.230    6.904  -34.252    0.717    2.745    5.747    1.000    4.588    6.839    3.688    0.745    0.000    0.157    0.091 
 4371.10    0.340    0.158    0.232    7.160  -33.821    0.717    2.766    5.785    1.000    4.699    7.113    3.894    0.745    0.000    0.158    0.096 
 4371.20    0.365    0.156    0.235    7.442  -33.338    0.718    2.877    5.814    1.000    4.810    7.387    4.087    0.745    0.000    0.156    0.100 
 4371.30    0.392    0.151    0.235    7.673  -32.780    0.719    2.988    5.860    1.000    4.866    7.468    4.321    0.740    0.000    0.151    0.105 
 4371.40    0.414    0.145    0.234    7.903  -32.222    0.720    3.149    5.887    1.000    4.992    7.549    4.559    0.736    0.000    0.145    0.110 
 4371.50    0.457    0.142    0.236    7.954  -31.004    0.721    3.332    5.934    1.000    5.144    7.677    4.785    0.737    0.000    0.142    0.115 
 4371.60    0.531    0.138    0.239    8.236  -27.351    0.721    3.519    5.988    1.000    5.361    7.805    4.997    0.739    0.000    0.138    0.120 
 4371.70    0.530    0.133    0.243    8.287  -26.818    0.719    3.661    6.044    1.000    5.710    7.997    5.264    0.736    0.000    0.133    0.126 
 4371.80    0.510    0.128    0.246    8.544  -26.565    0.715    3.955    6.329    1.000    5.786    8.190    5.603    0.729    0.000    0.128    0.133 
 4371.90    0.511    0.126    0.250    8.800  -26.032    0.712    4.233    6.446    1.000    5.801    8.279    5.815    0.723    0.000    0.126    0.138 
 4372.00    0.524    0.125    0.256    9.286  -25.499    0.709    4.404    6.480    1.000    5.791    8.367    5.829    0.719    0.000    0.125    0.138 
 4372.10    0.575    0.119    0.263    9.542  -24.940    0.705    4.233    6.473    1.000    5.766    8.410    5.782    0.714    0.000    0.119    0.137 
 4372.20    0.588    0.100    0.268    9.849  -24.230    0.703    3.955    6.445    1.000    5.736    8.453    5.808    0.703    0.000    0.100    0.138 
 4372.30    0.589    0.085    0.268   10.233  -23.722    0.704    4.114    6.420    1.000    5.579    8.414    5.953    0.690    0.000    0.085    0.141 
 4372.40    0.609    0.091    0.269   10.413  -22.758    0.706    4.370    6.379    1.000    5.352    8.376    6.137    0.682    0.000    0.091    0.145 
 4372.50    0.618    0.096    0.274   10.490  -22.479    0.706    4.280    6.355    1.000    5.292    8.207    6.213    0.684    0.000    0.096    0.147 
 4372.60    0.589    0.095    0.275   10.465  -21.946    0.706    4.022    6.373    1.000    5.246    8.038    6.246    0.681    0.000    0.095    0.147 
 4372.70    0.571    0.089    0.275   10.350  -21.768    0.704    3.525    6.389    1.000    5.186    7.980    6.334    0.673    0.000    0.089    0.149 
 4372.80    0.518    0.074    0.275   10.209  -21.768    0.701    3.674    6.392    1.000    5.151    7.922    6.341    0.671    0.000    0.074    0.149 
 4372.90    0.483    0.074    0.278    9.673  -22.047    0.697    3.772    6.386    1.000    5.014    7.838    6.192    0.672    0.000    0.074    0.146 
 4373.00    0.486    0.069    0.280    9.366  -22.326    0.693    3.632    6.375    1.000    4.999    7.753    6.029    0.671    0.000    0.069    0.143 
 4373.10    0.462    0.058    0.277    9.085  -22.604    0.690    3.269    6.364    1.000    4.974    7.622    5.768    0.667    0.000    0.058    0.137 
 4373.20    0.417    0.044    0.273    8.804  -23.137    0.688    2.886    6.339    1.000    4.969    7.491    5.596    0.663    0.000    0.044    0.133 
 4373.30    0.369    0.050    0.266    8.421  -23.390    0.684    2.622    6.314    1.000    4.909    7.264    5.597    0.666    0.000    0.050    0.133 
 4373.40    0.322    0.049    0.257    8.242  -23.644    0.683    2.753    6.280    1.000    4.853    7.037    5.410    0.675    0.000    0.049    0.129 
