~Version information
  VERS.                            1.20: CWLS LAS  -  VERSION 1.20
  WRAP.                              NO: One line per depth step
~Well information
# MNEM.UNIT
# ====.================================:===================
  STRT.M                        3666.30: First depth in file
  STOP.M                        4629.70: Last depth in file
  STEP.M                           0.10: Depth increment
  NULL.                         -999.25: Null values
  COMP.                         COMPANY:
  WELL.                            WELL: Well-001
  FLD .                           FIELD:
  CNTY.                          COUNTY:
  STAT.                           STATE: RUSSIA
  SRVC.                 SERVICE COMPANY:
~Parametr information block
# MNEM.UNIT
# ====.================================:===================
~Other information
# ------------------------- REMARKS  AREA ------------------
~Curve information
# MNEM.UNIT
# ====.================================:===================
  DEPT.M                               : Depth curve
  VSH .dec                             : VSH
  PHIE.dec                             : PHIE
  PHIT.dec                             : PHIT
  RL  .Ohmm                            : RL
  SP  .mV                              : SP
  NGL (23.09.86).c.u.                  : NGL (23.09.86)
  LL  .Ohmm                            : LL
  GR (23.09.86).mkR/h                  : GR (23.09.86)
  SW  .dec                             : SW
  RL4 .Ohmm                            : RL4
  RL8 .Ohmm                            : RL8
  GR (17.06.17).mkR/h                  : GR (17.06.17)
  NGL.c.u.                             : NGL 
  vHD.dec                              : vhd
  bvw.dec                              : BVW
  CBW .dec                             :
~ASCII       VSH     PHIE     PHIT       RL       SP    NGL (23.     LL   GR (23.0    SW      RL4      RL8     GR (17.0  NGL       VHD    BVW      CBW
# ...
 4243.50    0.219    0.172    0.251    5.340  -50.462    0.739    4.842    3.151    0.844    5.408    4.674    2.630    0.720    0.027    0.145    0.068 
 4243.60    0.163    0.167    0.248    5.416  -50.996    0.745    4.596    3.103    0.820    5.408    4.485    2.691    0.743    0.030    0.137    0.069 
 4243.70    0.163    0.170    0.245    5.442  -52.139    0.752    4.064    3.122    0.860    5.398    4.421    2.860    0.737    0.024    0.146    0.073 
 4243.80    0.167    0.176    0.237    5.442  -52.977    0.757    3.790    3.126    0.898    5.373    4.355    3.165    0.737    0.018    0.158    0.080 
 4243.90    0.180    0.191    0.233    5.443  -53.511    0.757    3.709    3.121    0.941    5.343    4.232    3.359    0.737    0.011    0.179    0.084 
 4244.00    0.196    0.190    0.235    5.443  -54.044    0.755    3.656    3.107    0.975    5.288    4.110    3.358    0.739    0.005    0.185    0.084 
 4244.10    0.232    0.184    0.235    5.367  -54.705    0.753    3.552    3.090    1.000    5.036    3.829    3.204    0.733    0.000    0.184    0.080 
 4244.20    0.232    0.172    0.234    5.266  -56.407    0.750    3.346    3.064    1.000    4.886    3.549    3.079    0.733    0.000    0.172    0.078 
 4244.30    0.231    0.164    0.235    5.115  -56.890    0.751    2.992    3.037    1.000    4.730    3.279    2.983    0.740    0.000    0.164    0.076 
 4244.40    0.199    0.159    0.237    4.837  -57.093    0.752    2.194    2.973    1.000    3.564    3.011    2.861    0.740    0.000    0.159    0.073 
 4244.50    0.205    0.153    0.235    4.787  -57.169    0.752    1.747    2.995    1.000    3.132    2.949    2.872    0.738    0.000    0.153    0.073 
 4244.60    0.181    0.153    0.233    4.433  -57.219    0.754    1.555    3.090    1.000    2.836    2.888    3.080    0.731    0.000    0.153    0.078 
 4244.70    0.181    0.168    0.235    4.358  -57.194    0.757    1.552    3.196    1.000    3.047    2.968    3.227    0.730    0.000    0.168    0.081 
 4244.80    0.185    0.165    0.237    4.333  -57.168    0.758    1.626    3.325    1.000    3.158    3.049    3.178    0.728    0.000    0.165    0.080 
 4244.90    0.223    0.167    0.239    4.295  -57.117    0.759    1.714    3.416    1.000    3.268    3.296    3.203    0.724    0.000    0.167    0.080 
 4245.00    0.212    0.170    0.240    4.232  -56.977    0.761    1.801    3.533    1.000    3.414    3.541    3.413    0.715    0.000    0.170    0.085 
 4245.10    0.214    0.172    0.243    4.258  -56.837    0.762    1.947    3.645    1.000    3.686    3.776    3.525    0.707    0.000    0.172    0.087 
 4245.20    0.223    0.161    0.247    4.334  -56.277    0.761    2.135    3.732    1.000    3.831    4.011    3.455    0.692    0.000    0.161    0.086 
 4245.30    0.257    0.163    0.253    4.410  -45.019    0.759    2.518    3.888    1.000    3.932    4.126    3.527    0.681    0.000    0.163    0.087 
 4245.40    0.241    0.167    0.260    4.512  -43.748    0.756    3.154    4.175    1.000    4.043    4.242    3.767    0.672    0.000    0.167    0.093 
 4245.50    0.244    0.166    0.268    4.626  -42.757    0.747    3.909    4.722    0.895    4.158    4.338    4.141    0.661    0.018    0.149    0.101 
 4245.60    0.265    0.162    0.274    4.841  -42.248    0.736    4.736    5.107    0.858    4.264    4.434    4.190    0.634    0.023    0.139    0.102 
 4245.70    0.294    0.168    0.280    5.119  -40.977    0.727    5.230    5.189    0.825    4.370    4.462    4.046    0.634    0.029    0.139    0.099 
 4245.80    0.331    0.181    0.290    5.423  -40.520    0.722    5.238    5.266    0.829    4.380    4.489    4.020    0.637    0.031    0.150    0.098 
 4245.90    0.300    0.173    0.297    5.702  -40.316    0.717    4.644    5.324    0.813    4.279    4.500    3.997    0.646    0.032    0.141    0.098 
 4246.00    0.301    0.174    0.296    6.005  -40.290    0.712    3.343    5.386    0.917    4.164    4.512    3.973    0.660    0.014    0.160    0.097 
 4246.10    0.295    0.172    0.292    6.284  -40.417    0.704    2.429    5.449    1.000    4.058    4.550    3.970    0.672    0.000    0.172    0.097 
 4246.20    0.297    0.192    0.285    6.562  -40.544    0.693    2.215    5.460    1.000    3.898    4.590    3.998    0.689    0.000    0.192    0.098 
 4246.30    0.290    0.192    0.277    6.815  -40.658    0.684    2.304    5.445    1.000    3.742    4.631    3.985    0.703    0.000    0.192    0.098 
 4246.40    0.296    0.190    0.268    7.018  -40.772    0.679    2.509    5.412    1.000    3.833    4.674    3.945    0.716    0.000    0.190    0.097 
 4246.50    0.296    0.185    0.259    7.069  -41.331    0.676    2.948    5.353    1.000    3.963    4.774    3.860    0.724    0.000    0.185    0.095 
 4246.60    0.293    0.178    0.250    6.816  -41.788    0.674    3.365    5.202    1.000    4.159    4.875    3.671    0.731    0.000    0.178    0.091 
 4246.70    0.287    0.170    0.244    5.047  -42.575    0.673    3.835    5.121    1.000    4.371    5.051    3.194    0.738    0.000    0.170    0.080 
 4246.80    0.273    0.160    0.240    4.643  -43.261    0.674    4.058    4.843    1.000    4.597    5.228    2.945    0.767    0.000    0.160    0.075 
 4246.90    0.246    0.152    0.236    4.542  -44.303    0.677    4.236    3.865    0.965    4.743    4.817    3.035    0.767    0.005    0.146    0.077 
 4247.00    0.180    0.144    0.226    4.668  -48.013    0.680    4.475    3.770    0.894    4.898    4.405    2.982    0.761    0.015    0.129    0.075 
 4247.10    0.198    0.146    0.218    4.795  -53.909    0.687    4.569    3.536    0.953    5.004    4.110    2.812    0.770    0.007    0.139    0.072 
 4247.20    0.197    0.152    0.220    5.048  -54.747    0.692    4.392    3.360    0.963    5.110    3.814    2.569    0.770    0.006    0.147    0.066 
 4247.30    0.186    0.167    0.219    5.580  -55.763    0.703    4.097    3.228    0.969    5.210    3.700    2.343    0.768    0.005    0.162    0.061 
 4247.40    0.166    0.148    0.216    5.656  -58.126    0.720    3.622    3.138    0.991    5.381    3.584    2.294    0.763    0.001    0.147    0.060 
 4247.50    0.149    0.149    0.217    5.959  -59.092    0.733    2.995    3.052    1.000    5.487    3.458    2.347    0.755    0.000    0.149    0.062 
 4247.60    0.134    0.154    0.219    5.985  -59.651    0.740    2.833    2.964    1.000    3.477    3.331    2.314    0.748    0.000    0.154    0.061 
 4247.70    0.143    0.161    0.223    5.947  -60.794    0.747    2.559    2.847    1.000    3.296    3.246    2.224    0.752    0.000    0.161    0.059 
 4247.80    0.142    0.164    0.226    5.910  -61.658    0.755    2.307    2.679    1.000    3.125    3.162    2.111    0.746    0.000    0.164    0.056 
 4247.90    0.137    0.168    0.227    5.809  -62.191    0.764    2.108    2.418    1.000    3.075    3.020    2.017    0.747    0.000    0.168    0.054 
 4248.00    0.128    0.172    0.228    5.708  -62.724    0.772    1.842    2.303    1.000    2.965    2.878    2.023    0.756    0.000    0.172    0.054 
 4248.10    0.121    0.175    0.229    5.658  -63.054    0.777    1.760    2.239    1.000    2.854    2.808    2.007    0.755    0.000    0.175    0.054 
 4248.20    0.114    0.179    0.227    5.658  -63.613    0.781    1.699    2.173    1.000    2.744    2.740    1.951    0.752    0.000    0.179    0.053 
 4248.30    0.122    0.183    0.224    5.785  -64.147    0.781    1.640    2.124    1.000    2.699    2.686    2.090    0.746    0.000    0.183    0.056 
 4248.40    0.111    0.186    0.225    5.912  -64.655    0.776    1.615    2.087    1.000    2.664    2.633    2.093    0.742    0.000    0.186    0.056 
 4248.50    0.113    0.189    0.228    5.912  -64.934    0.771    1.647    2.054    1.000    2.659    2.629    1.974    0.731    0.000    0.189    0.053 
 4248.60    0.133    0.181    0.231    6.190  -65.518    0.767    1.924    2.024    1.000    2.659    2.626    2.074    0.732    0.000    0.181    0.055 
