~Version information
  VERS.                            1.20: CWLS LAS  -  VERSION 1.20
  WRAP.                              NO: One line per depth step
~Well information
# MNEM.UNIT
# ====.================================:===================
  STRT.M                        3666.30: First depth in file
  STOP.M                        4629.70: Last depth in file
  STEP.M                           0.10: Depth increment
  NULL.                         -999.25: Null values
  COMP.                         COMPANY:
  WELL.                            WELL: Well-001
  FLD .                           FIELD:
  CNTY.                          COUNTY:
  STAT.                           STATE: RUSSIA
  SRVC.                 SERVICE COMPANY:
~Parametr information block
# MNEM.UNIT
# ====.================================:===================
~Other information
# ------------------------- REMARKS  AREA ------------------
~Curve information
# MNEM.UNIT
# ====.================================:===================
  DEPT.M                               : Depth curve
  VSH .dec                             : VSH
  PHIE.dec                             : PHIE
  PHIT.dec                             : PHIT
  RL  .Ohmm                            : RL
  SP  .mV                              : SP
  NGL (23.09.86).c.u.                  : NGL (23.09.86)
  LL  .Ohmm                            : LL
  GR (23.09.86).mkR/h                  : GR (23.09.86)
  SW  .dec                             : SW
  RL4 .Ohmm                            : RL4
  RL8 .Ohmm                            : RL8
  GR (17.06.17).mkR/h                  : GR (17.06.17)
  NGL.c.u.                             : NGL 
  vHD.dec                              : vhd
  bvw.dec                              : BVW
  CBW .dec                             :
~ASCII       VSH     PHIE     PHIT       RL       SP    NGL (23.     LL   GR (23.0    SW      RL4      RL8     GR (17.0  NGL       VHD    BVW      CBW
# ...
 4430.70    0.580    0.124    0.278   10.021  -18.907    0.687    3.651    4.936    1.000    7.222    7.106    5.696    0.733    0.000    0.124    0.135 
 4430.80    0.559    0.111    0.281    9.587  -18.882    0.689    2.757    4.996    1.000    7.146    6.851    5.890    0.720    0.000    0.111    0.140 
 4430.90    0.515    0.109    0.281    9.178  -18.831    0.689    2.590    5.528    1.000    6.693    6.693    6.094    0.708    0.000    0.109    0.144 
 4431.00    0.474    0.112    0.279    9.152  -18.780    0.689    2.438    5.679    1.000    6.567    6.536    6.160    0.694    0.000    0.112    0.145 
 4431.10    0.443    0.106    0.276    9.434  -18.830    0.687    2.537    5.888    1.000    6.466    6.455    6.007    0.673    0.000    0.106    0.142 
 4431.20    0.416    0.093    0.273    9.997  -18.957    0.673    2.684    5.802    1.000    6.265    6.374    5.735    0.676    0.000    0.093    0.136 
 4431.30    0.392    0.077    0.270   11.046  -19.083    0.665    2.883    5.714    0.950    6.165    6.261    5.501    0.684    0.004    0.074    0.131 
 4431.40    0.371    0.070    0.266   11.558  -19.109    0.654    2.954    5.594    0.837    6.064    6.150    5.280    0.697    0.011    0.058    0.126 
 4431.50    0.350    0.074    0.262   11.814  -19.362    0.648    2.882    5.508    0.725    6.039    6.251    5.036    0.706    0.020    0.053    0.121 
 4431.60    0.345    0.085    0.263   12.070  -19.640    0.644    2.786    5.447    0.613    6.002    6.351    4.843    0.715    0.033    0.052    0.116 
 4431.70    0.342    0.096    0.263   12.326  -19.919    0.638    2.733    5.357    0.500    5.965    6.583    4.628    0.732    0.048    0.048    0.112 
 4431.80    0.328    0.107    0.261   12.812  -20.173    0.640    3.202    5.296    0.492    5.990    6.814    4.486    0.748    0.055    0.053    0.109 
 4431.90    0.318    0.118    0.257   13.094  -20.477    0.660    3.660    5.239    0.483    6.117    7.150    4.471    0.742    0.061    0.057    0.108 
 4432.00    0.313    0.124    0.254   13.606  -21.009    0.683    4.144    5.176    0.475    6.269    7.485    4.396    0.736    0.065    0.059    0.107 
 4432.10    0.308    0.127    0.250   14.143  -21.846    0.696    6.272    5.097    0.470    6.523    7.749    4.273    0.747    0.068    0.060    0.104 
 4432.20    0.295    0.131    0.246   14.527  -22.353    0.698    6.943    5.010    0.465    6.624    8.011    4.196    0.764    0.070    0.061    0.102 
 4432.30    0.289    0.129    0.245   14.553  -22.936    0.696    7.656    4.942    0.460    6.751    8.218    4.156    0.773    0.070    0.059    0.101 
 4432.40    0.293    0.127    0.245   14.387  -23.215    0.694    8.302    4.905    0.455    7.004    8.427    4.060    0.786    0.069    0.058    0.099 
 4432.50    0.293    0.130    0.244   14.221  -23.773    0.690    8.750    4.845    0.450    7.207    8.517    3.959    0.803    0.071    0.058    0.097 
 4432.60    0.309    0.134    0.244   13.531  -24.077    0.685    8.799    4.789    0.458    7.308    8.605    3.950    0.802    0.072    0.061    0.097 
 4432.70    0.343    0.135    0.244   12.688  -24.356    0.686    8.798    4.746    0.467    7.423    8.744    3.965    0.803    0.072    0.063    0.097 
 4432.80    0.377    0.136    0.244   12.151  -24.913    0.691    8.682    4.710    0.475    7.587    8.882    4.036    0.805    0.072    0.065    0.099 
 4432.90    0.362    0.141    0.244   11.614  -25.167    0.695    8.471    4.652    0.483    7.588    8.983    4.287    0.806    0.073    0.068    0.104 
 4433.00    0.373    0.143    0.243   11.359  -25.496    0.700    8.328    4.629    0.492    7.677    9.083    4.599    0.805    0.073    0.070    0.111 
 4433.10    0.357    0.141    0.243   10.796  -25.927    0.706    7.825    4.596    0.500    7.766    8.960    4.679    0.805    0.071    0.071    0.113 
 4433.20    0.325    0.141    0.242   10.311  -25.952    0.710    7.563    4.660    0.475    7.767    8.837    4.666    0.807    0.074    0.067    0.113 
 4433.30    0.288    0.135    0.241    9.979  -26.332    0.713    7.282    4.729    0.475    7.742    8.625    4.629    0.808    0.071    0.064    0.112 
 4433.40    0.297    0.122    0.242    9.698  -26.332    0.713    7.240    4.794    0.475    7.742    8.413    4.395    0.811    0.064    0.058    0.107 
 4433.50    0.319    0.109    0.242    9.417  -26.307    0.708    7.158    4.880    0.475    7.743    8.294    4.083    0.815    0.057    0.052    0.100 
 4433.60    0.338    0.114    0.242    9.059  -26.281    0.701    6.984    4.943    0.475    7.743    8.175    3.980    0.817    0.060    0.054    0.097 
 4433.70    0.315    0.112    0.242    8.880  -26.281    0.696    6.700    4.995    0.475    7.744    8.082    4.144    0.808    0.059    0.053    0.101 
 4433.80    0.319    0.116    0.242    8.855  -26.217    0.694    6.319    5.049    0.475    7.719    7.991    4.322    0.817    0.061    0.055    0.105 
 4433.90    0.337    0.129    0.242    8.881  -26.128    0.690    5.827    5.101    0.475    7.695    7.906    4.283    0.809    0.068    0.061    0.104 
 4434.00    0.355    0.140    0.242    8.907  -26.102    0.685    4.945    5.157    0.480    7.695    7.822    4.216    0.815    0.073    0.067    0.103 
 4434.10    0.373    0.139    0.245    8.907  -26.102    0.682    4.807    5.240    0.485    7.696    7.736    4.342    0.810    0.071    0.067    0.105 
 4434.20    0.395    0.130    0.249    8.907  -26.127    0.679    4.516    5.396    0.490    7.621    7.653    4.512    0.814    0.066    0.064    0.109 
 4434.30    0.412    0.125    0.251    8.908  -26.203    0.682    4.252    5.536    0.495    7.520    7.560    4.671    0.808    0.063    0.062    0.113 
 4434.40    0.428    0.137    0.253    8.857  -26.254    0.689    3.804    5.618    0.500    7.470    7.467    4.858    0.792    0.069    0.069    0.117 
 4434.50    0.437    0.139    0.254    8.789  -26.355    0.690    3.501    5.617    1.000    7.244    7.378    5.036    0.782    0.000    0.139    0.121 
 4434.60    0.456    0.133    0.254    8.721  -26.532    0.689    4.523    5.585    1.000    7.068    7.290    5.171    0.780    0.000    0.133    0.124 
 4434.70    0.485    0.130    0.252    8.577  -26.608    0.686    4.877    5.541    1.000    6.967    7.186    5.273    0.769    0.000    0.130    0.126 
 4434.80    0.524    0.124    0.251    8.449  -26.887    0.686    4.678    5.539    1.000    6.866    7.083    5.399    0.770    0.000    0.124    0.129 
 4434.90    0.559    0.115    0.251    8.168  -26.912    0.687    4.387    5.572    1.000    6.589    7.168    5.582    0.774    0.000    0.115    0.133 
 4435.00    0.538    0.107    0.250    8.143  -27.216    0.689    3.823    5.638    1.000    6.565    7.252    5.804    0.782    0.000    0.107    0.138 
 4435.10    0.483    0.101    0.250    8.271  -27.241    0.691    3.338    5.725    1.000    6.692    7.372    6.017    0.781    0.000    0.101    0.142 
 4435.20    0.429    0.097    0.250    8.399  -27.139    0.692    3.037    5.801    1.000    6.844    7.493    5.946    0.786    0.000    0.097    0.141 
 4435.30    0.402    0.090    0.249    8.655  -27.038    0.693    2.779    5.360    1.000    6.945    7.646    5.605    0.785    0.000    0.090    0.133 
 4435.40    0.396    0.081    0.248    8.912  -27.012    0.692    2.774    4.942    1.000    7.072    7.800    5.211    0.782    0.000    0.081    0.125 
 4435.50    0.386    0.067    0.249    9.168  -26.758    0.690    3.094    4.877    1.000    7.325    7.956    4.966    0.787    0.000    0.067    0.119 
 4435.60    0.361    0.053    0.248    9.424  -26.733    0.686    6.259    4.841    1.000    7.806    8.110    4.921    0.793    0.000    0.053    0.118 
 4435.70    0.329    0.060    0.247    9.705  -26.428    0.678    7.304    4.777    1.000    8.109    8.233    4.826    0.790    0.000    0.060    0.116 
 4435.80    0.302    0.080    0.244   10.243  -26.149    0.670    7.845    4.503    1.000    8.337    8.357    4.596    0.787    0.000    0.080    0.111 
