~Version information
  VERS.                            1.20: CWLS LAS  -  VERSION 1.20
  WRAP.                              NO: One line per depth step
~Well information
# MNEM.UNIT
# ====.================================:===================
  STRT.M                        3666.30: First depth in file
  STOP.M                        4629.70: Last depth in file
  STEP.M                           0.10: Depth increment
  NULL.                         -999.25: Null values
  COMP.                         COMPANY:
  WELL.                            WELL: Well-001
  FLD .                           FIELD:
  CNTY.                          COUNTY:
  STAT.                           STATE: RUSSIA
  SRVC.                 SERVICE COMPANY:
~Parametr information block
# MNEM.UNIT
# ====.================================:===================
~Other information
# ------------------------- REMARKS  AREA ------------------
~Curve information
# MNEM.UNIT
# ====.================================:===================
  DEPT.M                               : Depth curve
  VSH .dec                             : VSH
  PHIE.dec                             : PHIE
  PHIT.dec                             : PHIT
  RL  .Ohmm                            : RL
  SP  .mV                              : SP
  NGL (23.09.86).c.u.                  : NGL (23.09.86)
  LL  .Ohmm                            : LL
  GR (23.09.86).mkR/h                  : GR (23.09.86)
  SW  .dec                             : SW
  RL4 .Ohmm                            : RL4
  RL8 .Ohmm                            : RL8
  GR (17.06.17).mkR/h                  : GR (17.06.17)
  NGL.c.u.                             : NGL 
  vHD.dec                              : vhd
  bvw.dec                              : BVW
  CBW .dec                             :
~ASCII       VSH     PHIE     PHIT       RL       SP    NGL (23.     LL   GR (23.0    SW      RL4      RL8     GR (17.0  NGL       VHD    BVW      CBW
# ...
 4118.70    0.175    0.150    0.212   11.780  -42.394    0.711    5.380    3.768    0.450   10.460    8.153    2.929    0.781    0.083    0.068    0.074 
 4118.80    0.176    0.152    0.212   11.755  -42.063    0.711    5.442    3.803    0.455   10.536    8.230    3.025    0.779    0.083    0.069    0.076 
 4118.90    0.181    0.151    0.214   11.705  -41.923    0.711    5.515    3.831    0.460   10.649    8.308    3.112    0.780    0.081    0.069    0.078 
 4119.00    0.180    0.148    0.214   11.654  -41.783    0.711    5.569    3.857    0.465   10.838    8.379    3.098    0.782    0.079    0.069    0.078 
 4119.10    0.184    0.143    0.213   11.629  -41.504    0.711    5.579    3.882    0.470   10.939    8.379    3.136    0.782    0.076    0.067    0.079 
 4119.20    0.170    0.141    0.212   11.554  -41.249    0.711    5.591    3.898    0.475   11.040    8.385    3.300    0.784    0.074    0.067    0.082 
 4119.30    0.173    0.144    0.212   11.478  -40.740    0.710    5.592    3.907    0.478   11.040    8.464    3.375    0.790    0.075    0.069    0.084 
 4119.40    0.181    0.150    0.212   11.453  -40.511    0.710    5.562    3.937    0.481   11.116    8.540    3.322    0.799    0.078    0.072    0.083 
 4119.50    0.185    0.149    0.211   11.365  -40.257    0.710    5.522    3.971    0.483   11.192    8.598    3.198    0.807    0.077    0.072    0.080 
 4119.60    0.194    0.147    0.211   11.252  -39.977    0.709    5.482    4.006    0.486   11.218    8.654    3.037    0.811    0.076    0.072    0.077 
 4119.70    0.214    0.149    0.212   11.201  -39.723    0.709    5.442    3.945    0.489   11.244    8.654    2.990    0.811    0.076    0.073    0.076 
 4119.80    0.200    0.148    0.211   11.075  -39.697    0.709    5.432    3.884    0.492   11.269    8.656    2.994    0.814    0.075    0.073    0.076 
 4119.90    0.202    0.150    0.210   10.899  -39.417    0.710    5.412    3.841    0.494   11.270    8.716    3.012    0.818    0.076    0.074    0.076 
 4120.00    0.236    0.150    0.210   10.798  -39.137    0.710    5.413    3.832    0.497   11.278    8.773    3.039    0.825    0.075    0.074    0.077 
 4120.10    0.234    0.146    0.208   10.672  -38.883    0.711    5.435    3.834    0.500   11.287    8.773    3.062    0.831    0.073    0.073    0.077 
 4120.20    0.229    0.142    0.204   10.495  -38.743    0.712    5.498    3.837    0.488   11.321    8.777    3.095    0.831    0.073    0.069    0.078 
 4120.30    0.219    0.134    0.199   10.293  -38.603    0.712    5.562    3.837    0.475   11.339    8.892    2.989    0.835    0.070    0.064    0.076 
 4120.40    0.185    0.122    0.197   10.268  -38.349    0.714    5.637    3.830    0.469   11.356    9.007    2.885    0.839    0.065    0.057    0.073 
 4120.50    0.200    0.128    0.197    9.990  -38.094    0.715    5.712    3.817    0.463   11.398    9.065    2.924    0.837    0.069    0.059    0.074 
 4120.60    0.186    0.126    0.196    9.763  -37.865    0.716    5.757    3.799    0.456   11.398    9.126    3.047    0.839    0.069    0.058    0.077 
 4120.70    0.201    0.116    0.194    9.485  -37.636    0.716    5.801    3.763    0.450   11.449    9.339    3.109    0.835    0.064    0.052    0.078 
 4120.80    0.196    0.112    0.191    8.929  -37.178    0.716    5.813    3.678    0.455   11.525    9.550    3.116    0.826    0.061    0.051    0.078 
 4120.90    0.199    0.108    0.188    8.550  -36.873    0.716    5.847    3.648    0.460   11.525    9.742    3.178    0.821    0.058    0.050    0.080 
 4121.00    0.214    0.111    0.188    8.348  -36.619    0.716    5.859    3.614    0.465   11.576    9.934    3.255    0.825    0.059    0.051    0.082 
 4121.10    0.182    0.120    0.186    8.323  -36.314    0.717    5.882    3.580    0.470   11.677   10.165    3.362    0.833    0.063    0.056    0.084 
 4121.20    0.183    0.116    0.185    8.045  -36.059    0.717    5.895    3.541    0.475   11.728   10.396    3.413    0.842    0.061    0.055    0.085 
 4121.30    0.182    0.118    0.185    7.869  -35.805    0.717    5.907    3.503    0.475   11.753   10.511    3.387    0.852    0.062    0.056    0.084 
 4121.40    0.211    0.116    0.185    7.768  -35.550    0.716    5.908    3.470    0.475   11.842   10.627    3.429    0.861    0.061    0.055    0.085 
 4121.50    0.201    0.115    0.186    7.680  -34.966    0.715    5.887    3.491    0.475   12.006   10.952    3.571    0.863    0.060    0.055    0.088 
 4121.60    0.207    0.118    0.189    7.566  -34.406    0.713    5.888    3.537    0.475   12.031   11.279    3.711    0.859    0.062    0.056    0.092 
 4121.70    0.213    0.119    0.192    7.465  -34.101    0.711    5.824    3.619    0.475   12.145   11.491    3.852    0.850    0.062    0.057    0.095 
 4121.80    0.221    0.123    0.191    7.415  -33.796    0.707    5.813    3.764    0.463   12.359   11.704    3.902    0.836    0.066    0.057    0.096 
 4121.90    0.238    0.125    0.188    7.314  -33.287    0.704    5.738    3.835    0.450   12.485   11.839    3.910    0.823    0.069    0.056    0.096 
 4122.00    0.238    0.122    0.184    7.138  -33.058    0.701    5.654    3.868    0.475   12.586   11.974    3.956    0.809    0.064    0.058    0.097 
 4122.10    0.231    0.114    0.180    7.024  -32.804    0.699    5.549    3.933    0.475   12.700   11.996    4.070    0.791    0.060    0.054    0.099 
 4122.20    0.240    0.105    0.176    6.860  -32.270    0.696    5.427    3.964    0.475   12.838   12.016    4.241    0.773    0.055    0.050    0.103 
 4122.30    0.260    0.103    0.174    6.747  -32.015    0.694    5.327    4.001    0.475   12.939   11.962    4.381    0.757    0.054    0.049    0.106 
 4122.40    0.268    0.102    0.176    6.557  -31.736    0.697    5.189    4.038    0.475   12.990   11.905    4.549    0.740    0.053    0.048    0.110 
 4122.50    0.292    0.102    0.179    6.444  -31.481    0.699    5.075    4.075    0.475   12.865   11.664    4.791    0.730    0.053    0.048    0.115 
 4122.60    0.281    0.103    0.185    6.255  -30.719    0.701    4.962    4.110    0.475   12.614   11.416    5.009    0.726    0.054    0.049    0.120 
 4122.70    0.293    0.105    0.191    6.141  -30.439    0.703    4.771    4.218    0.475   12.288   10.911    4.993    0.716    0.055    0.050    0.120 
 4122.80    0.288    0.110    0.197    5.825  -29.752    0.703    4.410    4.367    0.463   11.937   10.395    4.962    0.711    0.059    0.051    0.119 
 4122.90    0.312    0.120    0.206    5.724  -29.523    0.701    2.725    4.468    0.450   11.058   11.148    4.883    0.704    0.066    0.054    0.117 
 4123.00    0.323    0.126    0.214    5.522  -29.066    0.696    2.048    4.524    0.456   10.807   11.966    4.627    0.695    0.068    0.057    0.112 
 4123.10    0.343    0.127    0.223    5.144  -29.015    0.677    1.907    4.730    0.450   10.230   11.803    4.552    0.691    0.070    0.057    0.110 
 4123.20    0.359    0.135    0.234    5.017  -28.887    0.652    2.135    5.232    0.725    9.627   11.581    4.606    0.691    0.037    0.098    0.111 
 4123.30    0.397    0.137    0.239    4.689  -28.758    0.646    2.147    5.336    1.000    9.000   11.067    4.531    0.689    0.000    0.137    0.110 
 4123.40    0.415    0.140    0.243    4.664  -28.522    0.645    2.201    5.658    1.000    8.648   10.536    4.304    0.684    0.000    0.140    0.105 
 4123.50    0.409    0.144    0.248    4.791  -28.276    0.655    2.243    5.681    1.000    8.322    9.803    4.187    0.678    0.000    0.144    0.102 
 4123.60    0.401    0.149    0.252    4.918  -27.929    0.659    2.334    5.658    1.000    7.895    9.057    4.181    0.677    0.000    0.149    0.102 
 4123.70    0.347    0.144    0.257    5.145  -27.522    0.665    2.786    5.618    0.891    7.419    8.720    4.207    0.679    0.016    0.128    0.102 
 4123.80    0.362    0.147    0.261    5.171  -27.280    0.671    2.976    5.558    0.956    6.992    8.418    4.203    0.692    0.006    0.140    0.102 
