~Version information
  VERS.                            1.20: CWLS LAS  -  VERSION 1.20
  WRAP.                              NO: One line per depth step
~Well information
# MNEM.UNIT
# ====.================================:===================
  STRT.M                        3666.30: First depth in file
  STOP.M                        4629.70: Last depth in file
  STEP.M                           0.10: Depth increment
  NULL.                         -999.25: Null values
  COMP.                         COMPANY:
  WELL.                            WELL: Well-001
  FLD .                           FIELD:
  CNTY.                          COUNTY:
  STAT.                           STATE: RUSSIA
  SRVC.                 SERVICE COMPANY:
~Parametr information block
# MNEM.UNIT
# ====.================================:===================
~Other information
# ------------------------- REMARKS  AREA ------------------
~Curve information
# MNEM.UNIT
# ====.================================:===================
  DEPT.M                               : Depth curve
  VSH .dec                             : VSH
  PHIE.dec                             : PHIE
  PHIT.dec                             : PHIT
  RL  .Ohmm                            : RL
  SP  .mV                              : SP
  NGL (23.09.86).c.u.                  : NGL (23.09.86)
  LL  .Ohmm                            : LL
  GR (23.09.86).mkR/h                  : GR (23.09.86)
  SW  .dec                             : SW
  RL4 .Ohmm                            : RL4
  RL8 .Ohmm                            : RL8
  GR (17.06.17).mkR/h                  : GR (17.06.17)
  NGL.c.u.                             : NGL 
  vHD.dec                              : vhd
  bvw.dec                              : BVW
  CBW .dec                             :
~ASCII       VSH     PHIE     PHIT       RL       SP    NGL (23.     LL   GR (23.0    SW      RL4      RL8     GR (17.0  NGL       VHD    BVW      CBW
# ...
 3993.90    0.116    0.225    0.265   19.821  -51.539    0.783    8.957    3.066    0.609   10.320   12.421    2.287    0.705    0.088    0.137    0.060 
 3994.00    0.125    0.226    0.265   20.099  -51.539    0.789    9.452    3.003    0.606   10.825   12.777    2.156    0.705    0.089    0.137    0.057 
 3994.10    0.133    0.220    0.263   20.376  -51.463    0.793    9.724    2.912    0.608   11.104   13.016    2.042    0.705    0.086    0.134    0.055 
 3994.20    0.134    0.215    0.261   20.931  -51.362    0.813   10.332    2.817    0.600   11.584   13.225    2.105    0.703    0.086    0.129    0.056 
 3994.30    0.125    0.213    0.260   20.956  -51.210    0.821   10.851    2.610    0.589   11.838   13.299    2.160    0.704    0.088    0.126    0.057 
 3994.40    0.120    0.216    0.259   21.234  -51.057    0.837   11.195    2.547    0.584   12.065   13.386    2.032    0.703    0.090    0.126    0.055 
 3994.50    0.124    0.216    0.258   19.238  -50.752    0.840   11.191    2.481    0.586   12.369   13.534    1.919    0.695    0.089    0.127    0.052 
 3994.60    0.129    0.214    0.258   18.405  -50.245    0.842   11.093    2.354    0.589   12.597   13.662    2.003    0.685    0.088    0.126    0.054 
 3994.70    0.131    0.213    0.258   17.268  -49.965    0.834   10.665    2.257    0.596   13.103   13.680    2.185    0.686    0.086    0.127    0.058 
 3994.80    0.132    0.213    0.259   16.308  -49.864    0.827   10.121    2.248    0.605   13.356   13.701    2.285    0.693    0.084    0.129    0.060 
 3994.90    0.131    0.212    0.259   16.005  -49.838    0.823    9.490    2.282    0.615   13.609   13.739    2.160    0.694    0.082    0.131    0.057 
 3995.00    0.130    0.213    0.260   14.918  -49.813    0.820    8.132    2.309    0.640   14.190   13.766    2.043    0.697    0.077    0.136    0.055 
 3995.10    0.132    0.215    0.260   14.388  -49.763    0.816    7.866    2.337    0.649   14.721   13.712    2.056    0.702    0.076    0.140    0.055 
 3995.20    0.129    0.213    0.260   13.857  -49.763    0.816    8.040    2.381    0.642   14.999   13.644    2.118    0.698    0.076    0.137    0.056 
 3995.30    0.113    0.215    0.262   13.276  -49.738    0.816    8.344    2.377    0.624   15.505   13.460    2.179    0.700    0.081    0.134    0.058 
 3995.40    0.107    0.224    0.263   12.745  -49.598    0.814    8.868    2.365    0.612   16.061   13.260    2.204    0.697    0.087    0.137    0.058 
 3995.50    0.108    0.225    0.261   12.164  -49.459    0.813    9.103    2.349    0.611   16.339   12.857    2.213    0.700    0.087    0.137    0.059 
 3995.60    0.107    0.222    0.261   11.608  -49.332    0.812    9.084    2.320    0.608   16.618   12.466    2.191    0.694    0.087    0.135    0.058 
 3995.70    0.109    0.224    0.262   11.027  -49.205    0.810    9.019    2.262    0.610   17.149   12.264    2.221    0.694    0.088    0.137    0.059 
 3995.80    0.113    0.224    0.263   10.749  -48.951    0.806    8.848    2.210    0.613   17.427   12.053    2.237    0.698    0.087    0.138    0.059 
 3995.90    0.116    0.224    0.265   10.446  -48.697    0.802    8.354    2.245    0.622   17.756   11.631    2.040    0.696    0.085    0.139    0.055 
 3996.00    0.130    0.225    0.266   10.344  -48.138    0.788    7.831    2.406    0.642   18.085   11.209    1.895    0.690    0.081    0.145    0.052 
 3996.10    0.147    0.219    0.266   10.167  -47.579    0.785    8.047    2.535    0.641   18.439   10.787    1.901    0.698    0.079    0.141    0.052 
 3996.20    0.160    0.216    0.270    9.939  -47.325    0.785    8.384    2.611    0.633   18.566   10.366    1.889    0.697    0.079    0.137    0.051 
 3996.30    0.166    0.216    0.276    9.889  -46.639    0.785    8.445    2.735    0.625   18.441    9.943    1.929    0.692    0.081    0.135    0.052 
 3996.40    0.169    0.221    0.282    9.611  -46.309    0.785    8.304    2.813    0.623   18.316    9.519    1.963    0.693    0.083    0.138    0.053 
 3996.50    0.174    0.225    0.285    9.358  -45.547    0.784    7.900    2.850    0.631   18.165    9.076    1.987    0.685    0.083    0.142    0.054 
 3996.60    0.185    0.226    0.287    9.004  -44.734    0.783    7.347    2.921    0.648   16.578    8.634    2.110    0.689    0.079    0.146    0.056 
 3996.70    0.193    0.224    0.289    8.574  -43.921    0.780    6.657    2.985    0.671   16.327    8.154    2.316    0.688    0.074    0.150    0.061 
 3996.80    0.200    0.222    0.289    8.397  -43.159    0.779    6.017    3.050    0.696   15.823    7.674    2.514    0.684    0.067    0.154    0.065 
 3996.90    0.215    0.219    0.288    8.321  -41.812    0.776    5.426    3.137    0.730   14.689    7.376    2.635    0.674    0.059    0.160    0.068 
 3997.00    0.222    0.213    0.288    8.295  -41.507    0.774    4.973    3.200    0.757   13.530    7.080    2.692    0.663    0.052    0.161    0.069 
 3997.10    0.248    0.210    0.289    8.320  -41.253    0.769    4.601    3.289    0.791   13.279    6.732    2.757    0.655    0.044    0.166    0.071 
 3997.20    0.264    0.203    0.291    8.370  -40.771    0.751    4.264    3.381    0.821   12.776    6.381    2.863    0.651    0.036    0.167    0.073 
 3997.30    0.261    0.200    0.291    8.496  -40.517    0.743    3.925    3.464    0.847   12.273    6.318    2.962    0.649    0.030    0.169    0.075 
 3997.40    0.270    0.199    0.287    8.622  -40.416    0.722    3.579    3.555    0.900   11.996    6.263    3.051    0.648    0.020    0.179    0.077 
 3997.50    0.277    0.190    0.283    8.748  -40.365    0.708    3.208    3.618    0.955   11.140    6.316    3.155    0.649    0.009    0.181    0.079 
 3997.60    0.260    0.184    0.278    8.874  -40.327    0.698    2.960    3.679    0.984   10.510    6.372    3.284    0.651    0.003    0.181    0.082 
 3997.70    0.254    0.185    0.275    9.126  -40.289    0.691    2.735    3.710    1.000   10.058    6.463    3.519    0.649    0.000    0.185    0.087 
 3997.80    0.252    0.185    0.272    9.353  -40.366    0.687    2.737    3.738    1.000    9.504    6.556    3.654    0.643    0.000    0.185    0.090 
 3997.90    0.239    0.181    0.269    9.807  -40.480    0.671    2.933    3.770    0.989    9.101    6.825    3.656    0.644    0.002    0.179    0.090 
 3998.00    0.249    0.184    0.268   10.262  -40.620    0.678    3.141    3.802    0.972    8.850    7.103    3.755    0.651    0.005    0.179    0.093 
 3998.10    0.230    0.181    0.267   10.968  -40.874    0.688    3.223    3.833    0.953    8.801    7.293    3.773    0.658    0.008    0.173    0.093 
 3998.20    0.200    0.184    0.266   11.524  -41.332    0.691    3.217    3.894    0.916    8.826    7.478    3.657    0.666    0.015    0.169    0.090 
 3998.30    0.203    0.197    0.267   12.129  -41.866    0.695    3.202    3.957    0.917    8.916    7.664    3.582    0.672    0.016    0.181    0.089 
 3998.40    0.179    0.197    0.269   12.760  -43.772    0.699    3.205    4.006    0.890    9.056    7.849    3.492    0.678    0.022    0.176    0.087 
 3998.50    0.171    0.207    0.269   13.265  -45.577    0.707    3.302    3.666    0.880    9.170    8.207    3.476    0.684    0.025    0.182    0.086 
 3998.60    0.176    0.207    0.264   13.517  -45.602    0.714    3.464    3.425    0.886    9.335    8.576    3.473    0.682    0.024    0.184    0.086 
 3998.70    0.156    0.199    0.258   14.022  -45.882    0.720    3.698    3.394    0.862    9.639    8.964    3.233    0.689    0.027    0.172    0.081 
 3998.80    0.157    0.200    0.254   14.577  -46.136    0.726    4.032    3.366    0.841    9.893    9.352    3.069    0.686    0.032    0.168    0.077 
 3998.90    0.157    0.198    0.254   15.385  -46.416    0.729    4.539    3.290    0.803   10.146    9.554    2.998    0.684    0.039    0.159    0.076 
 3999.00    0.151    0.199    0.257   15.864  -47.230    0.732    6.022    3.201    0.717   10.197    9.739    2.818    0.680    0.057    0.143    0.072 
