~Version information
  VERS.                            1.20: CWLS LAS  -  VERSION 1.20
  WRAP.                              NO: One line per depth step
~Well information
# MNEM.UNIT
# ====.================================:===================
  STRT.M                        3666.30: First depth in file
  STOP.M                        4629.70: Last depth in file
  STEP.M                           0.10: Depth increment
  NULL.                         -999.25: Null values
  COMP.                         COMPANY:
  WELL.                            WELL: Well-001
  FLD .                           FIELD:
  CNTY.                          COUNTY:
  STAT.                           STATE: RUSSIA
  SRVC.                 SERVICE COMPANY:
~Parametr information block
# MNEM.UNIT
# ====.================================:===================
~Other information
# ------------------------- REMARKS  AREA ------------------
~Curve information
# MNEM.UNIT
# ====.================================:===================
  DEPT.M                               : Depth curve
  VSH .dec                             : VSH
  PHIE.dec                             : PHIE
  PHIT.dec                             : PHIT
  RL  .Ohmm                            : RL
  SP  .mV                              : SP
  NGL (23.09.86).c.u.                  : NGL (23.09.86)
  LL  .Ohmm                            : LL
  GR (23.09.86).mkR/h                  : GR (23.09.86)
  SW  .dec                             : SW
  RL4 .Ohmm                            : RL4
  RL8 .Ohmm                            : RL8
  GR (17.06.17).mkR/h                  : GR (17.06.17)
  NGL.c.u.                             : NGL 
  vHD.dec                              : vhd
  bvw.dec                              : BVW
  CBW .dec                             :
~ASCII       VSH     PHIE     PHIT       RL       SP    NGL (23.     LL   GR (23.0    SW      RL4      RL8     GR (17.0  NGL       VHD    BVW      CBW
# ...
 3931.50    0.342    0.168    0.286    4.720  -33.811    0.602    2.089    4.783    1.000    7.896    8.364    4.282    0.672    0.000    0.168    0.104 
 3931.60    0.347    0.169    0.283    4.859  -34.840    0.608    2.352    4.752    1.000    7.821    8.199    4.266    0.677    0.000    0.169    0.104 
 3931.70    0.319    0.166    0.279    4.884  -37.534    0.620    2.740    4.703    1.000    7.520    8.100    4.130    0.689    0.000    0.166    0.101 
 3931.80    0.322    0.157    0.275    5.161  -37.992    0.633    3.139    4.672    1.000    7.407    8.028    3.911    0.701    0.000    0.157    0.096 
 3931.90    0.337    0.152    0.273    5.439  -37.687    0.638    3.443    4.615    1.000    7.245    7.968    3.705    0.710    0.000    0.152    0.091 
 3932.00    0.364    0.161    0.275    5.691  -37.154    0.638    3.706    4.609    1.000    7.860    7.913    3.636    0.716    0.000    0.161    0.090 
 3932.10    0.364    0.164    0.277    6.221  -36.341    0.637    3.927    4.646    1.000    7.200    7.796    3.631    0.720    0.000    0.164    0.090 
 3932.20    0.358    0.159    0.276    6.549  -33.647    0.638    4.059    4.703    1.000    7.139    7.650    3.566    0.723    0.000    0.159    0.088 
 3932.30    0.321    0.153    0.275    6.675  -31.767    0.643    4.144    4.773    0.990    7.079    7.601    3.461    0.719    0.001    0.151    0.086 
 3932.40    0.328    0.148    0.274    6.725  -31.259    0.656    4.176    4.891    1.000    7.029    7.601    3.430    0.710    0.000    0.148    0.085 
 3932.50    0.320    0.147    0.270    6.725  -31.005    0.662    4.122    4.918    1.000    7.019    7.448    3.440    0.702    0.000    0.147    0.086 
 3932.60    0.302    0.148    0.264    6.636  -30.726    0.664    4.038    4.969    1.000    6.964    7.210    3.532    0.695    0.000    0.148    0.088 
 3932.70    0.281    0.141    0.257    6.547  -30.192    0.666    3.882    5.001    1.000    6.898    7.098    3.741    0.688    0.000    0.141    0.092 
 3932.80    0.260    0.140    0.252    6.496  -29.964    0.667    3.718    5.030    1.000    6.848    7.062    3.813    0.683    0.000    0.140    0.094 
 3932.90    0.261    0.142    0.248    6.218  -29.684    0.683    3.642    5.124    1.000    6.783    7.037    3.778    0.678    0.000    0.142    0.093 
 3933.00    0.261    0.146    0.246    6.104  -29.151    0.682    3.442    5.275    1.000    6.733    7.019    3.834    0.672    0.000    0.146    0.094 
 3933.10    0.251    0.150    0.245    5.864  -28.974    0.680    3.297    5.358    1.000    6.687    7.088    3.921    0.668    0.000    0.150    0.096 
 3933.20    0.246    0.153    0.246    5.864  -28.999    0.677    2.949    5.418    1.000    6.627    7.218    3.929    0.663    0.000    0.153    0.096 
 3933.30    0.238    0.156    0.250    5.977  -29.114    0.683    2.727    5.478    1.000    6.077    7.379    3.952    0.660    0.000    0.156    0.097 
 3933.40    0.241    0.163    0.255    6.090  -29.254    0.689    2.154    5.666    1.000    5.911    7.563    4.139    0.655    0.000    0.163    0.101 
 3933.50    0.240    0.170    0.259    6.342  -29.508    0.684    1.652    5.479    1.000    5.750    7.768    4.419    0.649    0.000    0.170    0.107 
 3933.60    0.282    0.176    0.263    6.595  -29.762    0.675    1.527    5.387    1.000    5.594    7.989    4.784    0.644    0.000    0.176    0.115 
 3933.70    0.281    0.182    0.267    6.847  -30.156    0.668    1.518    5.330    1.000    5.438    8.290    4.990    0.641    0.000    0.182    0.120 
 3933.80    0.274    0.184    0.269    7.402  -30.754    0.663    1.574    4.925    1.000    5.181    8.657    4.841    0.648    0.000    0.184    0.116 
 3933.90    0.276    0.183    0.272    7.654  -31.237    0.657    1.725    4.893    1.000    5.065    9.016    4.541    0.665    0.000    0.183    0.110 
 3934.00    0.285    0.177    0.276    8.159  -31.491    0.642    2.016    4.798    1.000    6.160    9.365    4.231    0.687    0.000    0.177    0.103 
 3934.10    0.292    0.179    0.278    8.436  -31.975    0.635    2.394    4.667    1.000    6.301    9.927    3.927    0.707    0.000    0.179    0.096 
 3934.20    0.286    0.185    0.280    9.269  -32.483    0.629    6.271    4.601    0.737    6.352   10.700    3.655    0.724    0.049    0.136    0.090 
 3934.30    0.295    0.183    0.283    9.749  -32.941    0.625    7.024    4.570    0.714    6.402   11.143    3.551    0.737    0.052    0.131    0.088 
 3934.40    0.320    0.184    0.286   10.001  -33.449    0.621    7.759    4.607    0.708    6.514   11.235    3.585    0.743    0.054    0.130    0.089 
 3934.50    0.350    0.186    0.289   10.051  -34.797    0.623    8.042    4.667    0.739    6.907   11.011    3.633    0.735    0.049    0.138    0.090 
 3934.60    0.382    0.191    0.292   10.000  -36.626    0.638    7.729    4.725    0.816    7.094   10.424    3.679    0.720    0.035    0.156    0.091 
 3934.70    0.406    0.189    0.293    9.886  -36.906    0.652    7.183    4.814    0.918    7.225    9.844    3.767    0.710    0.016    0.174    0.093 
 3934.80    0.386    0.181    0.289    9.747  -37.211    0.718    6.156    4.848    1.000    7.296    9.276    3.857    0.703    0.000    0.181    0.095 
 3934.90    0.347    0.163    0.279    9.469  -37.516    0.727    5.325    4.917    1.000    7.301    8.921    3.860    0.701    0.000    0.163    0.095 
 3935.00    0.322    0.141    0.267    9.216  -37.796    0.735    4.602    5.227    1.000    7.251    8.847    3.875    0.693    0.000    0.141    0.095 
 3935.10    0.287    0.121    0.255    8.988  -37.872    0.734    3.797    5.345    1.000    7.196    8.752    3.858    0.688    0.000    0.121    0.095 
 3935.20    0.251    0.114    0.245    8.735  -38.076    0.729    3.062    5.505    1.000    6.707    8.624    3.709    0.690    0.000    0.114    0.091 
 3935.30    0.251    0.117    0.236    8.609  -38.178    0.723    2.549    5.422    1.000    6.122    8.547    3.627    0.698    0.000    0.117    0.090 
 3935.40    0.254    0.119    0.232    8.331  -38.267    0.715    2.608    5.336    1.000    5.704    8.547    3.629    0.706    0.000    0.119    0.090 
 3935.50    0.259    0.129    0.235    8.204  -38.382    0.707    2.921    5.256    1.000    5.663    8.527    3.454    0.718    0.000    0.129    0.086 
 3935.60    0.262    0.145    0.243    8.221  -38.407    0.702    3.272    5.200    0.998    5.598    8.472    3.321    0.726    0.000    0.145    0.083 
 3935.70    0.269    0.158    0.250    8.237  -38.471    0.692    3.961    5.071    0.931    5.523    8.431    3.408    0.731    0.011    0.147    0.085 
 3935.80    0.280    0.165    0.254    8.279  -38.586    0.664    3.749    4.682    0.956    5.503    8.413    3.456    0.735    0.007    0.157    0.086 
 3935.90    0.285    0.165    0.257    8.392  -38.637    0.658    3.480    4.509    0.993    5.417    8.396    3.420    0.741    0.001    0.164    0.085 
 3936.00    0.280    0.168    0.260    8.531  -38.656    0.652    3.404    4.448    1.000    5.342    8.378    3.272    0.747    0.000    0.168    0.082 
 3936.10    0.288    0.169    0.263    8.531  -38.714    0.645    3.938    4.383    0.985    5.286    8.366    3.176    0.746    0.002    0.166    0.080 
 3936.20    0.279    0.167    0.264    8.808  -38.714    0.659    4.006    4.305    0.997    5.241    8.366    3.283    0.749    0.000    0.167    0.082 
 3936.30    0.268    0.165    0.262    9.009  -38.714    0.679    3.959    4.282    1.000    5.236    8.367    3.508    0.752    0.000    0.165    0.087 
 3936.40    0.258    0.161    0.257    9.110  -38.689    0.702    3.978    4.326    1.000    5.393    8.368    3.649    0.759    0.000    0.161    0.090 
 3936.50    0.261    0.156    0.252    9.110  -38.613    0.705    4.112    4.334    1.000    5.595    8.369    3.658    0.769    0.000    0.156    0.090 
 3936.60    0.253    0.151    0.246    9.059  -38.511    0.708    4.353    4.329    0.987    5.696    8.369    3.716    0.768    0.002    0.149    0.092 
