~Version information
  VERS.                            1.20: CWLS LAS  -  VERSION 1.20
  WRAP.                              NO: One line per depth step
~Well information
# MNEM.UNIT
# ====.================================:===================
  STRT.M                        3666.30: First depth in file
  STOP.M                        4629.70: Last depth in file
  STEP.M                           0.10: Depth increment
  NULL.                         -999.25: Null values
  COMP.                         COMPANY:
  WELL.                            WELL: Well-001
  FLD .                           FIELD:
  CNTY.                          COUNTY:
  STAT.                           STATE: RUSSIA
  SRVC.                 SERVICE COMPANY:
~Parametr information block
# MNEM.UNIT
# ====.================================:===================
~Other information
# ------------------------- REMARKS  AREA ------------------
~Curve information
# MNEM.UNIT
# ====.================================:===================
  DEPT.M                               : Depth curve
  VSH .dec                             : VSH
  PHIE.dec                             : PHIE
  PHIT.dec                             : PHIT
  RL  .Ohmm                            : RL
  SP  .mV                              : SP
  NGL (23.09.86).c.u.                  : NGL (23.09.86)
  LL  .Ohmm                            : LL
  GR (23.09.86).mkR/h                  : GR (23.09.86)
  SW  .dec                             : SW
  RL4 .Ohmm                            : RL4
  RL8 .Ohmm                            : RL8
  GR (17.06.17).mkR/h                  : GR (17.06.17)
  NGL.c.u.                             : NGL 
  vHD.dec                              : vhd
  bvw.dec                              : BVW
  CBW .dec                             :
~ASCII       VSH     PHIE     PHIT       RL       SP    NGL (23.     LL   GR (23.0    SW      RL4      RL8     GR (17.0  NGL       VHD    BVW      CBW
# ...
 3806.70    0.404    0.185    0.246    3.356  -30.686    0.562    2.632    4.535    0.875    3.106    3.313    4.923    0.719    0.023    0.162    0.118 
 3806.80    0.388    0.183    0.247    3.401  -30.703    0.559    2.836    4.469    0.838    3.050    3.278    4.972    0.721    0.030    0.154    0.119 
 3806.90    0.373    0.181    0.245    3.452  -30.639    0.557    2.943    4.426    0.817    2.994    3.243    4.927    0.717    0.033    0.148    0.118 
 3807.00    0.369    0.176    0.247    3.557  -30.566    0.555    2.951    4.403    0.821    2.933    3.208    4.795    0.718    0.031    0.144    0.115 
 3807.10    0.383    0.172    0.250    3.663  -30.480    0.552    2.868    4.381    0.866    2.887    3.173    4.695    0.723    0.023    0.149    0.113 
 3807.20    0.386    0.174    0.251    3.759  -30.323    0.550    2.713    4.352    0.902    2.847    3.165    4.727    0.712    0.017    0.157    0.114 
 3807.30    0.373    0.176    0.255    3.815  -30.091    0.547    2.709    4.350    0.878    2.796    3.157    4.805    0.713    0.021    0.154    0.116 
 3807.40    0.356    0.174    0.260    3.921  -29.743    0.543    2.714    4.375    0.846    2.745    3.095    4.777    0.708    0.027    0.147    0.115 
 3807.50    0.349    0.166    0.265    4.021  -29.158    0.539    2.740    4.426    0.834    2.730    3.032    4.647    0.701    0.027    0.138    0.112 
 3807.60    0.368    0.163    0.268    4.117  -28.552    0.538    2.690    4.655    0.872    2.781    3.029    4.528    0.691    0.021    0.142    0.110 
 3807.70    0.380    0.169    0.267    4.218  -28.200    0.538    2.548    4.763    0.914    2.832    3.025    4.571    0.685    0.014    0.154    0.110 
 3807.80    0.382    0.177    0.264    4.334  -27.903    0.540    2.409    4.883    0.938    2.934    3.005    4.710    0.683    0.011    0.166    0.114 
 3807.90    0.374    0.179    0.260    4.385  -27.576    0.542    2.233    4.941    0.952    3.046    2.985    4.784    0.687    0.009    0.170    0.115 
 3808.00    0.365    0.171    0.256    4.410  -27.072    0.545    1.971    5.123    0.989    3.036    2.996    4.763    0.694    0.002    0.169    0.115 
 3808.10    0.358    0.167    0.251    4.410  -26.787    0.549    1.673    5.256    1.000    3.031    3.008    4.686    0.700    0.000    0.167    0.113 
 3808.20    0.359    0.167    0.245    4.387  -26.488    0.555    1.462    5.315    1.000    3.036    3.008    4.613    0.705    0.000    0.167    0.111 
 3808.30    0.368    0.172    0.239    4.365  -25.942    0.558    1.455    5.336    1.000    3.082    3.006    4.581    0.715    0.000    0.172    0.111 
 3808.40    0.384    0.177    0.236    4.269  -25.702    0.566    1.613    5.298    1.000    3.092    2.979    4.620    0.726    0.000    0.177    0.112 
 3808.50    0.391    0.179    0.235    4.062  -25.508    0.571    1.797    5.267    1.000    3.235    2.952    4.734    0.734    0.000    0.179    0.114 
 3808.60    0.391    0.177    0.235    3.891  -25.336    0.580    1.964    5.205    1.000    3.368    2.929    4.839    0.737    0.000    0.177    0.116 
 3808.70    0.385    0.171    0.237    3.760  -25.189    0.586    2.037    5.147    1.000    3.429    2.904    4.869    0.737    0.000    0.171    0.117 
 3808.80    0.380    0.163    0.240    3.755  -25.066    0.588    2.009    5.053    1.000    3.454    2.894    4.845    0.736    0.000    0.163    0.116 
 3808.90    0.390    0.159    0.244    3.705  -24.990    0.583    2.001    4.959    1.000    3.460    2.882    4.796    0.732    0.000    0.159    0.115 
 3809.00    0.419    0.158    0.251    3.604  -24.985    0.571    2.073    4.896    1.000    3.454    2.834    4.817    0.727    0.000    0.158    0.116 
 3809.10    0.437    0.157    0.258    3.548  -24.985    0.560    2.174    4.773    1.000    3.297    2.789    4.987    0.719    0.000    0.157    0.120 
 3809.20    0.450    0.155    0.263    3.538  -25.027    0.554    2.280    4.721    1.000    3.185    2.741    5.196    0.704    0.000    0.155    0.124 
 3809.30    0.461    0.147    0.264    3.468  -25.096    0.552    2.383    4.759    1.000    3.073    2.696    5.331    0.694    0.000    0.147    0.127 
 3809.40    0.454    0.130    0.266    3.468  -25.170    0.549    2.355    4.831    1.000    2.895    2.629    5.429    0.691    0.000    0.130    0.129 
 3809.50    0.457    0.120    0.268    3.523  -25.224    0.546    2.205    4.930    1.000    2.509    2.563    5.450    0.689    0.000    0.120    0.130 
 3809.60    0.463    0.110    0.267    3.584  -25.236    0.543    1.993    5.019    1.000    2.478    2.482    5.439    0.685    0.000    0.110    0.130 
 3809.70    0.481    0.098    0.264    3.644  -25.236    0.544    1.863    5.105    1.000    2.501    2.400    5.466    0.682    0.000    0.098    0.130 
 3809.80    0.533    0.093    0.261    3.700  -25.219    0.546    1.749    5.134    1.000    2.529    2.400    5.537    0.686    0.000    0.093    0.132 
 3809.90    0.594    0.088    0.262    3.755  -25.195    0.548    1.724    5.214    1.000    2.641    2.400    5.738    0.693    0.000    0.088    0.136 
 3810.00    0.624    0.083    0.266    3.970  -25.140    0.548    1.860    5.271    1.000    2.743    2.473    6.063    0.696    0.000    0.083    0.143 
 3810.10    0.684    0.078    0.269    4.025  -25.024    0.552    1.989    5.362    1.000    2.845    2.545    6.333    0.689    0.000    0.078    0.149 
 3810.20    0.657    0.073    0.269    4.121  -24.903    0.552    2.037    5.414    1.000    2.957    2.595    6.599    0.684    0.000    0.073    0.155 
 3810.30    0.708    0.065    0.267    4.151  -24.755    0.552    1.982    5.391    1.000    3.013    2.645    6.705    0.681    0.000    0.065    0.157 
 3810.40    0.812    0.056    0.269    4.161  -24.599    0.551    1.946    5.365    1.000    3.115    2.661    6.769    0.684    0.000    0.056    0.159 
 3810.50    0.877    0.047    0.274    4.166  -24.467    0.551    1.984    5.311    1.000    3.171    2.676    7.109    0.686    0.000    0.047    0.166 
 3810.60    0.903    0.038    0.276    4.161  -24.251    0.550    2.032    5.277    1.000    3.176    2.699    7.411    0.676    0.000    0.038    0.173 
 3810.70    0.913    0.030    0.276    4.131  -24.022    0.549    2.029    5.219    1.000    3.060    2.720    7.723    0.670    0.000    0.030    0.180 
 3810.80    0.924    0.025    0.277    4.126  -23.899    0.547    2.021    5.189    1.000    3.075    2.723    8.184    0.670    0.000    0.025    0.190 
 3810.90    0.934    0.030    0.281    4.141  -23.799    0.545    1.995    5.128    1.000    3.095    2.725    8.782    0.669    0.000    0.030    0.203 
 3811.00    0.950    0.034    0.287    4.163  -23.757    0.544    2.002    5.094    1.000    3.095    2.726    9.398    0.667    0.000    0.034    0.216 
 3811.10    0.937    0.039    0.291    4.191  -23.733    0.545    2.052    5.034    1.000    3.090    2.728    9.974    0.656    0.000    0.039    0.223 
 3811.20    0.927    0.043    0.293    4.247  -23.708    0.547    2.076    5.014    1.000    3.035    2.726   10.584    0.648    0.000    0.043    0.225 
 3811.30    0.927    0.047    0.292    4.297  -23.697    0.549    2.056    5.027    1.000    2.984    2.726   10.757    0.642    0.000    0.047    0.224 
 3811.40    0.927    0.052    0.292    4.312  -23.750    0.552    2.002    5.040    1.000    2.852    2.726   10.437    0.641    0.000    0.052    0.224 
 3811.50    0.927    0.056    0.291    4.368  -23.831    0.556    1.927    5.069    1.000    2.857    2.726    9.964    0.644    0.000    0.056    0.223 
 3811.60    0.927    0.062    0.290    4.388  -23.952    0.562    1.832    5.097    1.000    2.898    2.741    9.286    0.644    0.000    0.062    0.214 
 3811.70    0.891    0.067    0.288    4.383  -24.051    0.565    1.719    5.149    1.000    2.921    2.757    8.539    0.646    0.000    0.067    0.198 
 3811.80    0.842    0.071    0.284    4.226  -24.163    0.567    1.640    5.206    1.000    2.995    2.787    7.920    0.646    0.000    0.071    0.184 
