~Version information
  VERS.                            1.20: CWLS LAS  -  VERSION 1.20
  WRAP.                              NO: One line per depth step
~Well information
# MNEM.UNIT
# ====.================================:===================
  STRT.M                        3666.30: First depth in file
  STOP.M                        4629.70: Last depth in file
  STEP.M                           0.10: Depth increment
  NULL.                         -999.25: Null values
  COMP.                         COMPANY:
  WELL.                            WELL: Well-001
  FLD .                           FIELD:
  CNTY.                          COUNTY:
  STAT.                           STATE: RUSSIA
  SRVC.                 SERVICE COMPANY:
~Parametr information block
# MNEM.UNIT
# ====.================================:===================
~Other information
# ------------------------- REMARKS  AREA ------------------
~Curve information
# MNEM.UNIT
# ====.================================:===================
  DEPT.M                               : Depth curve
  VSH .dec                             : VSH
  PHIE.dec                             : PHIE
  PHIT.dec                             : PHIT
  RL  .Ohmm                            : RL
  SP  .mV                              : SP
  NGL (23.09.86).c.u.                  : NGL (23.09.86)
  LL  .Ohmm                            : LL
  GR (23.09.86).mkR/h                  : GR (23.09.86)
  SW  .dec                             : SW
  RL4 .Ohmm                            : RL4
  RL8 .Ohmm                            : RL8
  GR (17.06.17).mkR/h                  : GR (17.06.17)
  NGL.c.u.                             : NGL 
  vHD.dec                              : vhd
  bvw.dec                              : BVW
  CBW .dec                             :
~ASCII       VSH     PHIE     PHIT       RL       SP    NGL (23.     LL   GR (23.0    SW      RL4      RL8     GR (17.0  NGL       VHD    BVW      CBW
# ...
 3681.90  -999.25  -999.25  -999.25    3.855  -18.767  -999.25    2.030  -999.25  -999.25    3.126    2.802    3.732  -999.25  -999.25  -999.25  -999.25 
 3682.00  -999.25  -999.25  -999.25    3.906  -18.733  -999.25    2.069  -999.25  -999.25    3.149    2.805    3.844  -999.25  -999.25  -999.25  -999.25 
 3682.10  -999.25  -999.25  -999.25    3.951  -18.695  -999.25    2.080  -999.25  -999.25    3.183    2.808    3.865  -999.25  -999.25  -999.25  -999.25 
 3682.20  -999.25  -999.25  -999.25    4.017  -18.657  -999.25    2.076  -999.25  -999.25    3.193    2.808    3.917  -999.25  -999.25  -999.25  -999.25 
 3682.30  -999.25  -999.25  -999.25    4.007  -18.657  -999.25    2.003  -999.25  -999.25    3.244    2.808    4.011  -999.25  -999.25  -999.25  -999.25 
 3682.40  -999.25  -999.25  -999.25    3.992  -18.606  -999.25    1.958  -999.25  -999.25    3.280    2.854    4.057  -999.25  -999.25  -999.25  -999.25 
 3682.50  -999.25  -999.25  -999.25    3.992  -18.555  -999.25    1.874  -999.25  -999.25    3.275    2.900    4.075  -999.25  -999.25  -999.25  -999.25 
 3682.60  -999.25  -999.25  -999.25    3.992  -18.496  -999.25    1.744  -999.25  -999.25    3.254    2.907    4.125  -999.25  -999.25  -999.25  -999.25 
 3682.70  -999.25  -999.25  -999.25    3.992  -18.437  -999.25    1.698  -999.25  -999.25    3.241    2.915    4.147  -999.25  -999.25  -999.25  -999.25 
 3682.80  -999.25  -999.25  -999.25    3.984  -18.377  -999.25    1.672  -999.25  -999.25    3.227    2.956    4.175  -999.25  -999.25  -999.25  -999.25 
 3682.90  -999.25  -999.25  -999.25    3.967  -18.289  -999.25    1.669  -999.25  -999.25    3.199    2.999    4.260  -999.25  -999.25  -999.25  -999.25 
 3683.00  -999.25  -999.25  -999.25    3.944  -18.174  -999.25    1.669  -999.25  -999.25    3.178    3.006    4.371  -999.25  -999.25  -999.25  -999.25 
 3683.10  -999.25  -999.25  -999.25    3.916  -18.107  -999.25    1.679  -999.25  -999.25    3.173    3.014    4.448  -999.25  -999.25  -999.25  -999.25 
 3683.20  -999.25  -999.25  -999.25    3.866  -18.039  -999.25    1.737  -999.25  -999.25    3.174    3.028    4.451  -999.25  -999.25  -999.25  -999.25 
 3683.30  -999.25  -999.25  -999.25    3.811  -17.946  -999.25    1.773  -999.25  -999.25    3.174    3.043    4.415  -999.25  -999.25  -999.25  -999.25 
 3683.40  -999.25  -999.25  -999.25    3.795  -17.832  -999.25    1.807  -999.25    0.886    3.179    3.045    4.578  -999.25  -999.25  -999.25  -999.25 
 3683.50  -999.25  -999.25  -999.25    3.846  -17.718  -999.25    1.884  -999.25    0.908    3.207    3.048    4.930  -999.25  -999.25  -999.25  -999.25 
 3683.60  -999.25  -999.25  -999.25    3.896  -17.604  -999.25    1.920  -999.25    0.874    3.235    3.052    4.986  -999.25  -999.25  -999.25  -999.25 
 3683.70  -999.25  -999.25  -999.25    3.962  -17.439  -999.25    1.939  -999.25    0.871    3.286    3.058    4.965  -999.25  -999.25  -999.25  -999.25 
 3683.80  -999.25  -999.25  -999.25    3.972  -17.363  -999.25    1.994  -999.25    0.860    3.464    3.072    4.956  -999.25  -999.25  -999.25  -999.25 
 3683.90  -999.25  -999.25  -999.25    3.962  -17.287  -999.25    1.950  -999.25    0.887    3.592    3.087    4.861  -999.25  -999.25  -999.25  -999.25 
 3684.00  -999.25  -999.25  -999.25    3.970  -17.186  -999.25    1.766  -999.25    0.900    3.597    3.099    4.722  -999.25  -999.25  -999.25  -999.25 
 3684.10  -999.25  -999.25  -999.25    3.979  -17.071  -999.25    1.707  -999.25    0.910    3.572    3.110    4.717  -999.25  -999.25  -999.25  -999.25 
 3684.20    0.378  -999.25  -999.25    3.987  -16.957  -999.25    1.694  -999.25    0.948    3.549    3.138    4.797  -999.25  -999.25  -999.25  -999.25 
 3684.30    0.389    0.215  -999.25    4.015  -16.907  -999.25    1.723  -999.25    0.952    3.506    3.163    4.804  -999.25    0.010    0.205  -999.25 
 3684.40    0.410    0.203  -999.25    4.043  -16.793  -999.25    1.790  -999.25    0.958    3.485    3.198    4.948  -999.25    0.009    0.194  -999.25 
 3684.50    0.393    0.210    0.348    4.083  -16.678  -999.25    1.859  -999.25    0.926    3.491    3.232    4.967    0.579    0.016    0.195    0.119 
 3684.60    0.406    0.210    0.348    4.134  -16.619  -999.25    1.975  -999.25    0.956    3.511    3.262    4.950    0.579    0.009    0.201    0.119 
 3684.70    0.406    0.210    0.351    4.189  -16.560  -999.25    2.071  -999.25    0.938    3.542    3.293    5.007    0.579    0.013    0.197    0.120 
 3684.80    0.429    0.205    0.350    4.245  -16.501  -999.25    2.172  -999.25    0.972    3.598    3.308    5.108    0.575    0.006    0.199    0.122 
 3684.90    0.408    0.213    0.344    4.310  -16.425  -999.25    2.172  -999.25    0.948    3.608    3.323    5.115    0.580    0.011    0.202    0.122 
 3685.00    0.392    0.215    0.340    4.336  -16.348  -999.25    2.087  -999.25    0.943    3.598    3.342    4.953    0.584    0.012    0.203    0.119 
 3685.10    0.406    0.205    0.345    4.305  -16.315  -999.25    1.968  -999.25    0.993    3.547    3.362    4.945    0.585    0.001    0.204    0.119 
 3685.20    0.429    0.202    0.344    4.300  -16.281  -999.25    1.848  -999.25    1.000    3.491    3.362    5.109    0.577    0.000    0.202    0.122 
 3685.30    0.393    0.196    0.338    4.326  -16.221  -999.25    1.793  -999.25    1.000    3.441    3.362    5.048    0.587    0.000    0.196    0.121 
 3685.40    0.383    0.200    0.339    4.351  -16.183  -999.25    1.743  -999.25    1.000    3.359    3.365    4.845    0.586    0.000    0.200    0.117 
 3685.50    0.365    0.185    0.338    4.356  -16.145  -999.25    1.779  -999.25    1.000    3.387    3.368    4.721    0.585    0.000    0.185    0.114 
 3685.60    0.344    0.184    0.332    4.411  -16.119  -999.25    1.964  -999.25    0.942    3.466    3.368    4.545    0.587    0.011    0.173    0.110 
 3685.70    0.344    0.170    0.326    4.472  -16.094  -999.25    2.071  -999.25    0.939    3.563    3.368    4.451    0.599    0.010    0.160    0.108 
 3685.80    0.352    0.176    0.323    4.497  -16.068  -999.25    2.196  -999.25    0.885    3.573    3.398    4.486    0.600    0.020    0.156    0.109 
 3685.90    0.345    0.181    0.320    4.563  -16.030  -999.25    2.290  -999.25    0.856    3.650    3.427    4.494    0.606    0.026    0.155    0.109 
 3686.00    0.345    0.176    0.319    4.568  -15.992  -999.25    2.387  -999.25    0.827    3.670    3.435    4.466    0.608    0.030    0.146    0.108 
 3686.10    0.360    0.167    0.319    4.623  -15.992  -999.25    2.456  -999.25    0.858    3.681    3.442    4.532    0.608    0.024    0.143    0.110 
 3686.20    0.346    0.171    0.318    4.694  -15.979  -999.25    2.456  -999.25    0.832    3.671    3.470    4.536    0.608    0.029    0.142    0.110 
 3686.30    0.354    0.177    0.313    4.724  -15.966  -999.25    2.360  -999.25    0.851    3.660    3.496    4.509    0.610    0.026    0.150    0.109 
 3686.40    0.318    0.186    0.309    4.719  -15.966  -999.25    2.311  -999.25    0.810    3.605    3.491    4.383    0.620    0.035    0.150    0.106 
 3686.50    0.322    0.189    0.312    4.697  -15.966  -999.25    2.250  -999.25    0.830    3.437    3.486    4.239    0.617    0.032    0.157    0.103 
 3686.60    0.291    0.183    0.311    4.614  -15.965  -999.25    2.179  -999.25    0.813    3.345    3.451    4.102    0.614    0.034    0.149    0.100 
 3686.70    0.279    0.190    0.306    4.553  -15.965  -999.25    2.162  -999.25    0.786    3.356    3.416    3.885    0.619    0.041    0.150    0.095 
 3686.80    0.292    0.193    0.309    4.473  -15.965  -999.25    2.171  -999.25    0.792    3.824    3.401    3.888    0.625    0.040    0.153    0.095 
 3686.90    0.292    0.197    0.314    4.473  -15.965  -999.25    2.208  -999.25    0.767    3.839    3.386    3.957    0.614    0.046    0.151    0.097 
 3687.00    0.300    0.185    0.316    4.495  -16.003  -999.25    2.216  -999.25    0.775    3.819    3.371    3.998    0.613    0.042    0.143    0.098 
