~Version information
  VERS.                            1.20: CWLS LAS  -  VERSION 1.20
  WRAP.                              NO: One line per depth step
~Well information
# MNEM.UNIT
# ====.================================:===================
  STRT.M                        3666.30: First depth in file
  STOP.M                        4629.70: Last depth in file
  STEP.M                           0.10: Depth increment
  NULL.                         -999.25: Null values
  COMP.                         COMPANY:
  WELL.                            WELL: Well-001
  FLD .                           FIELD:
  CNTY.                          COUNTY:
  STAT.                           STATE: RUSSIA
  SRVC.                 SERVICE COMPANY:
~Parametr information block
# MNEM.UNIT
# ====.================================:===================
~Other information
# ------------------------- REMARKS  AREA ------------------
~Curve information
# MNEM.UNIT
# ====.================================:===================
  DEPT.M                               : Depth curve
  VSH .dec                             : VSH
  PHIE.dec                             : PHIE
  PHIT.dec                             : PHIT
  RL  .Ohmm                            : RL
  SP  .mV                              : SP
  NGL (23.09.86).c.u.                  : NGL (23.09.86)
  LL  .Ohmm                            : LL
  GR (23.09.86).mkR/h                  : GR (23.09.86)
  SW  .dec                             : SW
  RL4 .Ohmm                            : RL4
  RL8 .Ohmm                            : RL8
  GR (17.06.17).mkR/h                  : GR (17.06.17)
  NGL.c.u.                             : NGL 
  vHD.dec                              : vhd
  bvw.dec                              : BVW
  CBW .dec                             :
~ASCII       VSH     PHIE     PHIT       RL       SP    NGL (23.     LL   GR (23.0    SW      RL4      RL8     GR (17.0  NGL       VHD    BVW      CBW
# ...
 4056.30    0.311    0.170    0.285    5.442  -26.800    0.662    4.214    5.278    0.590    5.890    5.436    4.247    0.648    0.070    0.100    0.103 
 4056.40    0.317    0.187    0.288    5.518  -26.685    0.664    4.418    5.409    0.598    5.853    5.360    4.282    0.652    0.075    0.112    0.104 
 4056.50    0.324    0.186    0.289    5.632  -26.660    0.661    4.231    5.498    0.626    5.596    5.316    4.363    0.661    0.069    0.116    0.106 
 4056.60    0.321    0.183    0.286    5.772  -26.621    0.655    3.758    5.555    0.679    5.339    5.298    4.399    0.667    0.059    0.124    0.107 
 4056.70    0.342    0.175    0.281    5.797  -26.558    0.647    3.202    5.630    0.778    5.278    5.281    4.451    0.671    0.039    0.136    0.108 
 4056.80    0.333    0.167    0.277    6.101  -26.557    0.634    2.812    5.573    0.819    5.334    5.317    4.575    0.676    0.030    0.137    0.111 
 4056.90    0.349    0.163    0.275    6.354  -26.621    0.634    2.302    5.515    0.953    5.370    5.355    4.670    0.677    0.008    0.155    0.113 
 4057.00    0.363    0.160    0.272    6.506  -26.684    0.638    2.180    5.455    1.000    5.360    5.396    4.693    0.677    0.000    0.160    0.113 
 4057.10    0.373    0.152    0.272    6.608  -26.709    0.641    2.374    5.423    0.998    5.345    5.436    4.722    0.678    0.000    0.152    0.114 
 4057.20    0.369    0.156    0.271    6.633  -26.963    0.647    3.074    5.392    0.870    5.350    5.474    4.846    0.678    0.020    0.135    0.117 
 4057.30    0.378    0.149    0.271    6.621  -27.102    0.650    3.502    5.331    0.831    5.406    5.544    4.894    0.682    0.025    0.124    0.118 
 4057.40    0.397    0.145    0.270    6.583  -27.242    0.654    3.285    5.328    0.866    5.462    5.644    4.682    0.686    0.019    0.125    0.113 
 4057.50    0.389    0.138    0.268    6.558  -27.521    0.660    3.076    5.262    0.897    5.517    5.659    4.439    0.687    0.014    0.124    0.108 
 4057.60    0.346    0.137    0.266    6.558  -27.661    0.664    3.047    5.202    0.827    5.628    5.675    4.359    0.677    0.024    0.114    0.106 
 4057.70    0.334    0.133    0.269    6.812  -27.800    0.669    3.311    5.290    0.767    5.906    5.663    4.383    0.681    0.031    0.102    0.106 
 4057.80    0.331    0.133    0.270    7.065  -28.029    0.673    3.592    5.374    0.742    5.392    5.652    4.437    0.684    0.034    0.098    0.108 
 4057.90    0.343    0.133    0.268    7.293  -28.308    0.672    3.809    5.446    0.755    5.281    5.593    4.468    0.683    0.032    0.100    0.108 
 4058.00    0.343    0.146    0.268    7.394  -28.562    0.668    4.116    5.478    0.800    5.180    5.534    4.463    0.687    0.029    0.117    0.108 
 4058.10    0.349    0.151    0.267    7.344  -28.714    0.665    4.085    5.560    0.650    5.019    5.533    4.469    0.694    0.053    0.098    0.108 
 4058.20    0.338    0.149    0.263    7.205  -28.866    0.668    3.121    5.093    0.500    4.707    5.543    4.567    0.711    0.075    0.075    0.110 
 4058.30    0.357    0.141    0.255    7.041  -28.942    0.675    2.397    4.263    0.490    4.555    5.570    4.572    0.728    0.072    0.069    0.111 
 4058.40    0.366    0.128    0.243    6.713  -29.018    0.684    2.157    4.143    0.480    4.672    5.606    4.340    0.743    0.067    0.061    0.105 
 4058.50    0.333    0.115    0.233    6.612  -29.119    0.692    2.027    4.025    0.470    4.813    5.644    4.026    0.759    0.061    0.054    0.098 
 4058.60    0.301    0.110    0.224    6.739  -29.119    0.700    1.945    3.959    0.460    5.111    5.681    3.755    0.774    0.060    0.051    0.093 
 4058.70    0.269    0.094    0.216    7.169  -29.119    0.706    1.990    3.861    0.450    5.368    5.719    3.657    0.780    0.052    0.042    0.090 
 4058.80    0.261    0.084    0.212    7.675  -29.093    0.712    2.250    3.534    0.460    5.989    5.760    3.746    0.774    0.045    0.039    0.092 
 4058.90    0.274    0.096    0.214    7.700  -29.000    0.719    2.534    3.422    0.470    6.090    5.799    3.742    0.766    0.051    0.045    0.092 
 4059.00    0.269    0.111    0.218    7.650  -28.906    0.722    2.925    3.344    0.480    6.196    5.879    3.653    0.764    0.058    0.053    0.090 
 4059.10    0.261    0.125    0.219    7.726  -28.813    0.726    3.339    3.298    0.490    6.247    6.003    3.577    0.767    0.064    0.061    0.089 
 4059.20    0.253    0.127    0.217    7.802  -28.584    0.729    4.915    3.405    0.500    6.293    6.131    3.528    0.774    0.064    0.064    0.088 
 4059.30    0.249    0.120    0.214    7.803  -28.380    0.715    5.301    3.473    0.500    6.338    6.216    3.560    0.778    0.060    0.060    0.088 
 4059.40    0.254    0.119    0.212    7.778  -28.126    0.715    5.322    3.568    0.500    6.384    6.301    3.370    0.781    0.059    0.059    0.084 
 4059.50    0.223    0.120    0.212    7.664  -27.846    0.719    5.374    3.648    0.500    6.429    6.341    3.139    0.779    0.060    0.060    0.079 
 4059.60    0.205    0.123    0.213    7.500  -27.592    0.722    5.394    3.709    0.500    6.485    6.379    3.032    0.772    0.062    0.062    0.077 
 4059.70    0.194    0.127    0.216    7.248  -27.108    0.724    5.540    3.798    0.492    6.616    6.406    2.893    0.765    0.064    0.062    0.074 
 4059.80    0.180    0.129    0.220    7.223  -26.854    0.725    5.562    3.921    0.483    6.889    6.431    2.828    0.758    0.067    0.062    0.072 
 4059.90    0.177    0.144    0.225    6.970  -26.574    0.725    5.573    4.007    0.475    7.061    6.386    2.767    0.746    0.075    0.068    0.071 
 4060.00    0.171    0.156    0.232    6.718  -26.294    0.720    5.670    4.070    0.460    7.147    6.119    2.720    0.734    0.084    0.072    0.070 
 4060.10    0.170    0.168    0.238    6.263  -26.015    0.695    5.757    4.125    0.438    7.152    5.434    2.696    0.727    0.094    0.073    0.069 
 4060.20    0.168    0.178    0.242    6.212  -25.735    0.668    6.081    4.184    0.412    6.401    5.095    2.701    0.722    0.104    0.073    0.069 
 4060.30    0.171    0.182    0.248    5.960  -25.455    0.669    6.316    4.250    0.389    5.952    4.770    2.789    0.708    0.111    0.071    0.071 
 4060.40    0.182    0.192    0.256    5.682  -25.200    0.669    6.389    4.368    0.388    5.685    4.570    2.949    0.695    0.118    0.075    0.075 
 4060.50    0.202    0.201    0.264    5.379  -25.149    0.669    6.130    4.429    0.450    5.382    4.421    3.184    0.686    0.111    0.090    0.080 
 4060.60    0.232    0.208    0.272    5.127  -25.149    0.667    5.059    4.522    0.454    5.226    4.482    3.406    0.669    0.114    0.094    0.085 
 4060.70    0.243    0.217    0.278    4.925  -25.174    0.665    4.375    4.621    0.457    4.959    4.625    3.459    0.664    0.118    0.099    0.086 
 4060.80    0.241    0.216    0.278    4.773  -25.250    0.661    4.120    4.718    0.461    4.641    4.766    3.472    0.669    0.116    0.099    0.086 
 4060.90    0.253    0.206    0.275    4.647  -25.292    0.653    2.336    4.629    0.464    4.475    4.863    3.606    0.673    0.110    0.096    0.089 
 4061.00    0.269    0.192    0.271    4.572  -25.334    0.643    2.146    4.503    0.468    4.228    4.953    3.726    0.680    0.102    0.090    0.092 
 4061.10    0.270    0.184    0.267    4.698  -25.402    0.647    2.052    4.419    0.471    4.365    5.056    3.709    0.684    0.097    0.087    0.092 
 4061.20    0.258    0.181    0.260    4.825  -25.452    0.651    1.950    4.319    0.475    4.551    5.163    3.586    0.700    0.095    0.086    0.089 
 4061.30    0.241    0.167    0.252    4.939  -25.503    0.662    1.847    4.173    0.483    4.996    5.259    3.439    0.714    0.086    0.081    0.086 
 4061.40    0.229    0.154    0.248    5.281  -25.503    0.667    1.886    4.224    0.492    5.450    5.333    3.331    0.717    0.078    0.076    0.083 
