~Version information
  VERS.                            1.20: CWLS LAS  -  VERSION 1.20
  WRAP.                              NO: One line per depth step
~Well information
# MNEM.UNIT
# ====.================================:===================
  STRT.M                        3666.30: First depth in file
  STOP.M                        4629.70: Last depth in file
  STEP.M                           0.10: Depth increment
  NULL.                         -999.25: Null values
  COMP.                         COMPANY:
  WELL.                            WELL: Well-001
  FLD .                           FIELD:
  CNTY.                          COUNTY:
  STAT.                           STATE: RUSSIA
  SRVC.                 SERVICE COMPANY:
~Parametr information block
# MNEM.UNIT
# ====.================================:===================
~Other information
# ------------------------- REMARKS  AREA ------------------
~Curve information
# MNEM.UNIT
# ====.================================:===================
  DEPT.M                               : Depth curve
  VSH .dec                             : VSH
  PHIE.dec                             : PHIE
  PHIT.dec                             : PHIT
  RL  .Ohmm                            : RL
  SP  .mV                              : SP
  NGL (23.09.86).c.u.                  : NGL (23.09.86)
  LL  .Ohmm                            : LL
  GR (23.09.86).mkR/h                  : GR (23.09.86)
  SW  .dec                             : SW
  RL4 .Ohmm                            : RL4
  RL8 .Ohmm                            : RL8
  GR (17.06.17).mkR/h                  : GR (17.06.17)
  NGL.c.u.                             : NGL 
  vHD.dec                              : vhd
  bvw.dec                              : BVW
  CBW .dec                             :
~ASCII       VSH     PHIE     PHIT       RL       SP    NGL (23.     LL   GR (23.0    SW      RL4      RL8     GR (17.0  NGL       VHD    BVW      CBW
# ...
 4181.10    0.180    0.217    0.243    6.360  -60.851    0.710    1.881    3.773    1.000    2.217    4.836    2.945    0.717    0.000    0.217    0.075 
 4181.20    0.190    0.223    0.249    6.816  -57.903    0.708    1.806    3.598    1.000    2.102    4.791    3.049    0.706    0.000    0.223    0.077 
 4181.30    0.199    0.223    0.255    7.347  -56.581    0.700    1.702    3.501    1.000    2.001    4.705    3.243    0.700    0.000    0.223    0.081 
 4181.40    0.232    0.220    0.258    7.777  -55.692    0.693    1.605    3.302    1.000    1.881    4.553    3.382    0.697    0.000    0.220    0.084 
 4181.50    0.237    0.222    0.260    8.030  -67.051    0.689    1.564    3.231    1.000    1.826    4.355    3.306    0.689    0.000    0.222    0.083 
 4181.60    0.219    0.222    0.266    8.258  -65.043    0.684    1.532    3.201    1.000    1.806    4.074    3.218    0.675    0.000    0.222    0.081 
 4181.70    0.215    0.218    0.274    8.511  -63.366    0.688    1.584    3.173    1.000    1.901    3.826    3.244    0.669    0.000    0.218    0.081 
 4181.80    0.219    0.212    0.277    9.093  -57.495    0.695    1.703    3.110    1.000    1.956    3.644    3.315    0.664    0.000    0.212    0.083 
 4181.90    0.230    0.197    0.280    9.346  -56.529    0.696    2.496    3.178    1.000    2.153    3.478    3.313    0.662    0.000    0.197    0.083 
 4182.00    0.223    0.195    0.281    9.599  -55.563    0.695    3.125    3.267    0.939    2.293    3.345    3.271    0.658    0.012    0.184    0.082 
 4182.10    0.222    0.203    0.283   10.105  -55.004    0.695    3.680    3.520    0.898    2.469    3.229    3.238    0.654    0.021    0.182    0.081 
 4182.20    0.216    0.204    0.285   10.637  -53.631    0.696    4.103    3.598    0.859    2.620    3.153    3.260    0.658    0.029    0.175    0.082 
 4182.30    0.218    0.200    0.283   10.915  -52.945    0.697    4.818    3.686    0.813    2.776    3.138    3.373    0.664    0.038    0.163    0.084 
 4182.40    0.232    0.193    0.280   11.244  -52.919    0.699    5.009    3.775    0.817    2.882    3.297    3.495    0.666    0.035    0.158    0.087 
 4182.50    0.250    0.192    0.278   11.624  -52.944    0.701    3.417    3.807    0.973    3.028    3.465    3.526    0.665    0.005    0.187    0.087 
 4182.60    0.253    0.187    0.279   11.725  -53.058    0.705    2.883    3.866    1.000    3.153    3.659    3.420    0.664    0.000    0.187    0.085 
 4182.70    0.240    0.189    0.279   11.675  -53.172    0.709    2.651    3.898    1.000    3.244    3.852    3.283    0.667    0.000    0.189    0.082 
 4182.80    0.227    0.188    0.278   11.397  -53.629    0.715    2.439    3.953    1.000    3.395    4.045    3.212    0.672    0.000    0.188    0.081 
 4182.90    0.217    0.182    0.275   11.145  -53.934    0.718    2.284    4.005    1.000    3.566    4.232    3.200    0.676    0.000    0.182    0.080 
 4183.00    0.215    0.172    0.272   10.892  -54.213    0.724    2.424    4.607    1.000    3.671    4.384    3.132    0.679    0.000    0.172    0.079 
 4183.10    0.210    0.171    0.267   10.640  -54.518    0.730    2.637    4.658    1.000    3.707    4.500    2.935    0.691    0.000    0.171    0.074 
 4183.20    0.194    0.173    0.264    9.426  -54.797    0.736    2.932    4.438    1.000    3.516    4.420    2.743    0.688    0.000    0.173    0.070 
 4183.30    0.175    0.173    0.265    9.983  -55.000    0.740    3.328    4.381    0.932    3.375    4.333    2.714    0.692    0.012    0.161    0.070 
 4183.40    0.169    0.171    0.263   10.767  -55.102    0.745    3.783    4.314    0.873    3.270    4.201    2.827    0.692    0.022    0.149    0.072 
 4183.50    0.177    0.169    0.262   11.298  -55.102    0.747    4.384    4.265    0.839    2.782    4.080    2.954    0.699    0.027    0.142    0.075 
 4183.60    0.190    0.170    0.259   11.779  -55.114    0.747    4.863    4.222    0.822    2.707    4.057    2.940    0.701    0.030    0.140    0.075 
 4183.70    0.193    0.177    0.256   12.007  -55.126    0.747    5.528    4.250    0.781    2.752    4.046    2.808    0.710    0.039    0.138    0.072 
 4183.80    0.182    0.187    0.253   11.957  -54.999    0.744    6.138    4.311    0.744    2.813    4.160    2.733    0.724    0.048    0.139    0.070 
 4183.90    0.172    0.193    0.247   11.843  -54.872    0.744    6.475    4.337    0.725    2.949    4.272    2.715    0.724    0.053    0.140    0.070 
 4184.00    0.171    0.189    0.243   11.704  -54.757    0.744    6.690    4.394    0.712    3.014    4.348    2.717    0.723    0.054    0.134    0.070 
 4184.10    0.169    0.183    0.244   11.578  -54.642    0.744    6.874    4.454    0.701    3.150    4.425    2.738    0.721    0.055    0.129    0.070 
 4184.20    0.172    0.186    0.245   11.427  -54.159    0.745    6.818    4.489    0.704    3.306    4.507    2.711    0.716    0.055    0.131    0.070 
 4184.30    0.172    0.190    0.248   11.124  -53.905    0.746    6.718    4.560    0.699    3.446    4.592    2.670    0.706    0.057    0.133    0.069 
 4184.40    0.167    0.193    0.252   10.517  -53.371    0.748    6.517    4.600    0.696    3.632    4.667    2.670    0.710    0.059    0.135    0.069 
 4184.50    0.166    0.196    0.253   10.239  -52.811    0.748    6.441    4.626    0.691    3.743    4.743    2.747    0.710    0.061    0.135    0.070 
 4184.60    0.167    0.199    0.252    9.709  -52.023    0.749    6.505    4.632    0.683    3.859    4.831    2.803    0.702    0.063    0.136    0.072 
 4184.70    0.178    0.198    0.254    9.431  -51.515    0.748    6.740    4.603    0.673    3.914    4.918    2.830    0.707    0.065    0.133    0.072 
 4184.80    0.175    0.203    0.255    9.178  -50.905    0.748    6.968    3.753    0.653    4.020    4.943    2.773    0.706    0.070    0.132    0.071 
 4184.90    0.183    0.208    0.254    8.900  -50.244    0.747    7.403    3.645    0.640    4.120    4.967    2.706    0.699    0.075    0.133    0.069 
 4185.00    0.167    0.213    0.256    8.597  -49.684    0.745    7.957    3.730    0.616    4.362    4.969    2.789    0.701    0.082    0.131    0.071 
 4185.10    0.172    0.217    0.258    8.067  -49.176    0.743    8.132    3.782    0.613    4.422    4.969    2.927    0.697    0.084    0.133    0.074 
 4185.20    0.181    0.218    0.259    7.789  -48.947    0.741    8.317    3.831    0.612    4.583    4.979    3.127    0.687    0.085    0.134    0.079 
 4185.30    0.198    0.228    0.264    7.258  -48.387    0.737    8.484    3.857    0.612    4.950    4.991    3.310    0.682    0.088    0.139    0.083 
 4185.40    0.223    0.228    0.268    6.955  -48.108    0.714    8.607    3.905    0.624    5.096    5.009    3.347    0.676    0.086    0.142    0.084 
 4185.50    0.234    0.237    0.272    6.425  -47.574    0.708    8.588    3.931    0.619    5.257    5.029    3.361    0.670    0.090    0.147    0.084 
 4185.60    0.227    0.236    0.275    6.147  -47.040    0.704    8.295    3.994    0.616    5.488    5.066    3.468    0.658    0.091    0.145    0.086 
 4185.70    0.237    0.234    0.281    6.096  -46.302    0.699    7.723    4.032    0.626    5.835    5.108    3.557    0.646    0.087    0.146    0.088 
 4185.80    0.251    0.231    0.288    5.768  -45.514    0.695    5.630    4.069    0.682    5.970    5.119    3.675    0.640    0.073    0.158    0.091 
 4185.90    0.255    0.221    0.292    5.642  -44.777    0.694    4.476    4.141    0.722    6.031    5.124    3.837    0.636    0.061    0.159    0.094 
 4186.00    0.274    0.223    0.295    5.566  -43.887    0.689    3.034    4.171    0.836    6.021    5.119    3.968    0.636    0.036    0.186    0.097 
 4186.10    0.287    0.228    0.296    5.508  -42.845    0.677    2.676    4.289    0.900    5.915    5.110    4.132    0.630    0.023    0.205    0.101 
 4186.20    0.299    0.232    0.298    5.449  -41.778    0.666    3.362    4.441    0.826    5.393    5.044    4.399    0.630    0.040    0.192    0.107 
