~Version information
  VERS.                            1.20: CWLS LAS  -  VERSION 1.20
  WRAP.                              NO: One line per depth step
~Well information
# MNEM.UNIT
# ====.================================:===================
  STRT.M                        3666.30: First depth in file
  STOP.M                        4629.70: Last depth in file
  STEP.M                           0.10: Depth increment
  NULL.                         -999.25: Null values
  COMP.                         COMPANY:
  WELL.                            WELL: Well-001
  FLD .                           FIELD:
  CNTY.                          COUNTY:
  STAT.                           STATE: RUSSIA
  SRVC.                 SERVICE COMPANY:
~Parametr information block
# MNEM.UNIT
# ====.================================:===================
~Other information
# ------------------------- REMARKS  AREA ------------------
~Curve information
# MNEM.UNIT
# ====.================================:===================
  DEPT.M                               : Depth curve
  VSH .dec                             : VSH
  PHIE.dec                             : PHIE
  PHIT.dec                             : PHIT
  RL  .Ohmm                            : RL
  SP  .mV                              : SP
  NGL (23.09.86).c.u.                  : NGL (23.09.86)
  LL  .Ohmm                            : LL
  GR (23.09.86).mkR/h                  : GR (23.09.86)
  SW  .dec                             : SW
  RL4 .Ohmm                            : RL4
  RL8 .Ohmm                            : RL8
  GR (17.06.17).mkR/h                  : GR (17.06.17)
  NGL.c.u.                             : NGL 
  vHD.dec                              : vhd
  bvw.dec                              : BVW
  CBW .dec                             :
~ASCII       VSH     PHIE     PHIT       RL       SP    NGL (23.     LL   GR (23.0    SW      RL4      RL8     GR (17.0  NGL       VHD    BVW      CBW
# ...
 4493.10    0.097    0.147    0.189   22.080  -46.298    0.856   10.690    2.357    0.391   21.949   14.639    1.756    1.024    0.089    0.057    0.048 
 4493.20    0.096    0.151    0.189   21.750  -46.197    0.845   10.274    2.328    0.401   22.227   15.045    1.777    1.025    0.090    0.061    0.049 
 4493.30    0.094    0.150    0.188   20.710  -46.095    0.839    9.912    2.294    0.411   22.480   15.451    1.763    1.030    0.088    0.061    0.049 
 4493.40    0.089    0.157    0.187   19.340  -46.070    0.832    9.592    2.233    0.411   22.935   15.895    1.720    1.036    0.092    0.064    0.048 
 4493.50    0.091    0.155    0.188   18.554  -45.817    0.828    9.503    2.163    0.416   23.466   16.340    1.697    1.031    0.091    0.065    0.047 
 4493.60    0.087    0.154    0.186   18.047  -45.564    0.823    9.579    2.112    0.416   23.694   16.745    1.686    1.034    0.090    0.064    0.047 
 4493.70    0.091    0.154    0.184   17.489  -44.502    0.815    9.763    2.167    0.420   24.225   17.152    1.689    1.043    0.089    0.065    0.047 
 4493.80    0.090    0.157    0.185   16.728  -43.290    0.806   10.002    2.279    0.406   24.478   17.769    1.706    1.053    0.093    0.064    0.047 
 4493.90    0.084    0.156    0.186   15.714  -41.723    0.794   10.360    2.375    0.396   25.034   18.386    1.663    1.039    0.094    0.062    0.046 
 4494.00    0.087    0.155    0.186   13.836  -40.713    0.787   10.792    2.531    0.388   25.843   19.043    1.649    1.044    0.095    0.060    0.046 
 4494.10    0.084    0.152    0.188   12.415  -39.980    0.782   11.399    2.673    0.368   26.626   19.700    1.649    1.040    0.096    0.056    0.046 
 4494.20    0.086    0.155    0.190   11.045  -39.247    0.777   11.841    2.719    0.359   27.132   20.163    1.643    1.027    0.099    0.056    0.046 
 4494.30    0.101    0.156    0.191    9.929  -38.716    0.770   12.265    2.942    0.361   27.612   20.628    1.743    1.019    0.100    0.056    0.048 
 4494.40    0.081    0.156    0.192    9.168  -38.236    0.763   12.667    3.069    0.337   28.143   21.053    1.715    1.015    0.103    0.052    0.048 
 4494.50    0.096    0.160    0.195    8.610  -37.478    0.758   12.915    3.133    0.338   28.649   21.477    1.684    1.006    0.106    0.054    0.047 
 4494.60    0.093    0.160    0.197    8.052  -36.493    0.754   13.243    3.210    0.328   29.205   21.844    1.753    0.996    0.108    0.053    0.048 
 4494.70    0.099    0.156    0.201    7.545  -35.861    0.752   13.633    3.291    0.317   29.786   22.211    1.772    0.984    0.106    0.049    0.049 
 4494.80    0.117    0.165    0.207    7.241  -35.204    0.747   13.794    3.333    0.315   30.342   22.406    1.907    0.961    0.113    0.052    0.052 
 4494.90    0.130    0.162    0.214    6.709  -34.850    0.743   13.545    3.370    0.313   30.974   22.600    2.097    0.933    0.111    0.051    0.056 
 4495.00    0.133    0.166    0.223    5.999  -34.117    0.737   10.685    3.463    0.341   31.354   22.562    2.203    0.900    0.109    0.056    0.058 
 4495.10    0.141    0.169    0.232    5.720  -33.738    0.731    9.337    3.569    0.356   31.405   22.523    2.276    0.861    0.109    0.060    0.060 
 4495.20    0.157    0.169    0.241    5.568  -33.030    0.724    8.820    3.741    0.362   24.840   22.313    2.435    0.829    0.108    0.061    0.063 
 4495.30    0.176    0.172    0.250    5.454  -31.969    0.709    8.462    3.833    0.367   24.562   22.101    2.670    0.800    0.109    0.063    0.069 
 4495.40    0.196    0.181    0.258    5.214  -31.185    0.685    7.938    4.009    0.382   24.310   21.332    2.911    0.769    0.112    0.069    0.074 
 4495.50    0.222    0.188    0.263    5.113  -30.528    0.676    6.164    4.166    0.447   23.553   20.562    3.143    0.749    0.104    0.084    0.079 
 4495.60    0.248    0.190    0.270    5.088  -29.846    0.672    3.899    4.298    0.581   22.317   17.344    3.390    0.731    0.080    0.111    0.084 
 4495.70    0.268    0.193    0.279    5.063  -23.456    0.665    3.151    4.398    0.644   18.277   14.126    3.615    0.704    0.069    0.124    0.089 
 4495.80    0.285    0.192    0.289    5.114  -22.193    0.655    2.679    4.475    0.690   15.525   13.586    3.803    0.669    0.059    0.132    0.094 
 4495.90    0.297    0.188    0.297    5.217  -19.592    0.647    2.475    4.501    0.716   15.449   13.048    3.952    0.632    0.054    0.135    0.097 
 4496.00    0.305    0.187    0.302    5.331  -17.697    0.634    2.388    4.557    0.729   15.172   12.645    4.053    0.612    0.051    0.136    0.099 
 4496.10    0.351    0.190    0.302    5.471  -17.040    0.628    2.522    4.585    0.773   14.920   12.241    4.304    0.603    0.043    0.147    0.105 
 4496.20    0.340    0.194    0.298    5.726  -16.787    0.623    2.818    6.019    0.730   14.643   11.991    4.469    0.611    0.053    0.142    0.108 
 4496.30    0.320    0.196    0.294    6.234  -16.610    0.614    3.239    6.214    0.666   14.088   11.741    4.330    0.626    0.066    0.131    0.105 
 4496.40    0.309    0.197    0.290    6.514  -16.559    0.607    3.910    6.493    0.599   13.584   11.473    4.183    0.641    0.079    0.118    0.102 
 4496.50    0.277    0.177    0.286    6.768  -16.559    0.601    4.248    6.528    0.545   13.079   11.203    3.965    0.656    0.080    0.096    0.097 
 4496.60    0.301    0.180    0.285    7.023  -16.584    0.610    4.410    6.534    0.561   12.852   10.993    3.928    0.664    0.079    0.101    0.096 
 4496.70    0.291    0.180    0.286    7.277  -16.633    0.625    4.247    6.502    0.562   12.348   10.781    4.000    0.663    0.079    0.101    0.098 
 4496.80    0.269    0.190    0.288    7.303  -16.683    0.635    4.020    6.367    0.555   12.020   10.629    3.838    0.657    0.085    0.105    0.094 
 4496.90    0.226    0.180    0.289    7.583  -16.797    0.641    3.577    6.231    0.549   11.465   10.475    3.515    0.651    0.081    0.099    0.087 
 4497.00    0.258    0.183    0.290    7.659  -16.935    0.651    3.631    6.141    0.571   10.986   10.341    3.454    0.650    0.079    0.105    0.086 
 4497.10    0.246    0.193    0.290    7.668  -17.212    0.658    3.856    6.048    0.540   10.659   10.206    3.549    0.647    0.089    0.104    0.088 
 4497.20    0.254    0.210    0.290    7.677  -17.312    0.657    3.951    5.991    0.541   10.356   10.170    3.530    0.649    0.096    0.114    0.088 
 4497.30    0.264    0.199    0.290    7.686  -17.287    0.656    3.973    5.925    0.547   10.078   10.132    3.623    0.647    0.090    0.109    0.090 
 4497.40    0.285    0.204    0.289    7.674  -17.034    0.655    4.048    5.798    0.562    9.600    9.998    3.784    0.650    0.089    0.115    0.093 
 4497.50    0.302    0.201    0.288    7.637  -17.008    0.651    4.299    5.890    0.561    9.574    9.864    3.973    0.653    0.088    0.113    0.097 
 4497.60    0.327    0.197    0.288    7.612  -16.704    0.651    4.481    5.989    0.574    9.298    9.769    4.179    0.655    0.084    0.113    0.102 
 4497.70    0.326    0.189    0.289    7.621  -16.451    0.654    4.372    6.061    0.578    9.172    9.673    4.297    0.652    0.080    0.110    0.104 
 4497.80    0.311    0.183    0.291    7.630  -16.198    0.656    4.178    6.064    0.575    9.072    9.617    4.219    0.648    0.078    0.105    0.103 
 4497.90    0.297    0.173    0.293    7.689  -16.072    0.656    3.926    6.005    0.575    8.971    9.559    4.076    0.641    0.074    0.100    0.100 
 4498.00    0.323    0.175    0.294    7.817  -15.743    0.654    4.122    5.954    0.580    8.896    9.425    4.138    0.634    0.073    0.101    0.101 
 4498.10    0.300    0.181    0.295    7.944  -15.666    0.652    4.130    5.871    0.554    8.846    9.292    4.155    0.630    0.081    0.100    0.101 
 4498.20    0.305    0.188    0.296    7.970  -15.717    0.648    4.014    5.882    0.566    8.771    9.272    4.063    0.628    0.082    0.106    0.099 
