~Version information
  VERS.                            1.20: CWLS LAS  -  VERSION 1.20
  WRAP.                              NO: One line per depth step
~Well information
# MNEM.UNIT
# ====.================================:===================
  STRT.M                        3666.30: First depth in file
  STOP.M                        4629.70: Last depth in file
  STEP.M                           0.10: Depth increment
  NULL.                         -999.25: Null values
  COMP.                         COMPANY:
  WELL.                            WELL: Well-001
  FLD .                           FIELD:
  CNTY.                          COUNTY:
  STAT.                           STATE: RUSSIA
  SRVC.                 SERVICE COMPANY:
~Parametr information block
# MNEM.UNIT
# ====.================================:===================
~Other information
# ------------------------- REMARKS  AREA ------------------
~Curve information
# MNEM.UNIT
# ====.================================:===================
  DEPT.M                               : Depth curve
  VSH .dec                             : VSH
  PHIE.dec                             : PHIE
  PHIT.dec                             : PHIT
  RL  .Ohmm                            : RL
  SP  .mV                              : SP
  NGL (23.09.86).c.u.                  : NGL (23.09.86)
  LL  .Ohmm                            : LL
  GR (23.09.86).mkR/h                  : GR (23.09.86)
  SW  .dec                             : SW
  RL4 .Ohmm                            : RL4
  RL8 .Ohmm                            : RL8
  GR (17.06.17).mkR/h                  : GR (17.06.17)
  NGL.c.u.                             : NGL 
  vHD.dec                              : vhd
  bvw.dec                              : BVW
  CBW .dec                             :
~ASCII       VSH     PHIE     PHIT       RL       SP    NGL (23.     LL   GR (23.0    SW      RL4      RL8     GR (17.0  NGL       VHD    BVW      CBW
# ...
 3744.30    0.445    0.190    0.330    3.855  -17.433  -999.25    1.579  -999.25    1.000    3.732    3.701    5.407    0.600    0.000    0.190    0.129 
 3744.40    0.417    0.188    0.333    3.976  -17.450  -999.25    1.616  -999.25    1.000    3.839    3.744    5.227    0.594    0.000    0.188    0.125 
 3744.50    0.418    0.179    0.336    4.026  -17.467  -999.25    1.688  -999.25    1.000    3.941    3.785    5.109    0.597    0.000    0.179    0.122 
 3744.60    0.438    0.172    0.334    4.122  -17.483  -999.25    1.773  -999.25    1.000    4.053    3.831    5.200    0.587    0.000    0.172    0.124 
 3744.70    0.423    0.153    0.327    4.183  -17.546  -999.25    1.848  -999.25    0.947    4.175    3.878    5.219    0.589    0.008    0.145    0.125 
 3744.80    0.440    0.159    0.325    4.233  -17.635  -999.25    1.919  -999.25    0.933    4.206    3.927    5.229    0.593    0.011    0.148    0.125 
 3744.90    0.508    0.171    0.330    4.289  -17.660  -999.25    2.001  -999.25    0.981    4.196    3.977    5.525    0.603    0.003    0.168    0.131 
 3745.00    0.475    0.176    0.332    4.369  -17.735  -999.25    2.036  -999.25    0.941    4.145    3.918    5.648    0.598    0.010    0.166    0.134 
 3745.10    0.499    0.181    0.329    4.375  -17.836  -999.25    2.040  -999.25    0.964    4.094    3.860    5.621    0.593    0.007    0.174    0.134 
 3745.20    0.542    0.183    0.328    4.319  -17.862  -999.25    2.053  -999.25    0.982    3.972    3.829    5.813    0.593    0.003    0.180    0.138 
 3745.30    0.540    0.183    0.333    4.153  -17.975  -999.25    2.049  -999.25    1.000    3.901    3.797    5.930    0.599    0.000    0.183    0.140 
 3745.40    0.514    0.195    0.339    4.042  -18.114  -999.25    2.031  -999.25    1.000    3.835    3.794    5.853    0.596    0.000    0.195    0.139 
 3745.50    0.517    0.194    0.345    3.936  -18.139  -999.25    1.994  -999.25    1.000    3.810    3.790    5.787    0.589    0.000    0.194    0.137 
 3745.60    0.535    0.177    0.351    3.946  -18.265  -999.25    1.910  -999.25    1.000    3.787    3.767    5.845    0.583    0.000    0.177    0.139 
 3745.70    0.502    0.185    0.353    3.946  -18.417  -999.25    1.803  -999.25    1.000    3.764    3.742    5.801    0.579    0.000    0.185    0.138 
 3745.80    0.469    0.179    0.352    3.992  -18.493  -999.25    1.734  -999.25    1.000    3.739    3.750    5.614    0.574    0.000    0.179    0.133 
 3745.90    0.451    0.174    0.359    4.012  -18.568  -999.25    1.696  -999.25    1.000    3.716    3.758    5.463    0.577    0.000    0.174    0.130 
 3746.00    0.433    0.170    0.361    4.022  -18.695  -999.25    1.722  -999.25    1.000    3.693    3.773    5.324    0.575    0.000    0.170    0.127 
 3746.10    0.392    0.171    0.355    4.022  -18.720  -999.25    1.725  -999.25    0.958    3.658    3.788    5.061    0.568    0.007    0.164    0.121 
 3746.20    0.404    0.166    0.349    4.017  -18.821  -999.25    1.739  -999.25    0.987    3.632    3.829    4.936    0.571    0.002    0.164    0.118 
 3746.30    0.404    0.155    0.345    3.997  -19.023  -999.25    1.720  -999.25    1.000    3.622    3.872    4.990    0.577    0.000    0.155    0.120 
 3746.40    0.388    0.170    0.344    3.974  -19.023  -999.25    1.682  -999.25    1.000    3.622    3.918    4.915    0.580    0.000    0.170    0.118 
 3746.50    0.355    0.180    0.345    3.942  -19.111  -999.25    1.621  -999.25    1.000    3.638    3.963    4.699    0.583    0.000    0.180    0.113 
 3746.60    0.315    0.180    0.341    3.891  -19.275  -999.25    1.573  -999.25    1.000    3.663    4.014    4.372    0.581    0.000    0.180    0.106 
 3746.70    0.293    0.174    0.332    3.866  -19.326  -999.25    1.565  -999.25    0.978    3.704    4.062    4.076    0.582    0.004    0.171    0.100 
 3746.80    0.282    0.200    0.332    3.861  -19.414  -999.25    1.548  -999.25    0.967    3.770    4.113    3.912    0.587    0.007    0.194    0.096 
 3746.90    0.276    0.192    0.335    3.868  -19.553  -999.25    1.575  -999.25    0.970    3.872    4.163    3.828    0.600    0.006    0.186    0.094 
 3747.00    0.259    0.186    0.330    3.875  -19.628  -999.25    1.642  -999.25    0.924    3.938    4.186    3.708    0.587    0.014    0.171    0.091 
 3747.10    0.226    0.185    0.324    3.887  -19.679  -999.25    1.702  -999.25    0.860    4.056    4.207    3.462    0.591    0.026    0.159    0.086 
 3747.20    0.239    0.189    0.317    3.917  -19.729  -999.25    1.775  -999.25    0.847    4.040    4.192    3.367    0.599    0.029    0.160    0.084 
 3747.30    0.219    0.201    0.312    3.947  -19.780  -999.25    1.885  -999.25    0.798    4.015    4.177    3.333    0.606    0.041    0.160    0.083 
 3747.40    0.225    0.207    0.310    3.998  -19.805  -999.25    2.033  -999.25    0.761    3.939    4.114    3.264    0.614    0.050    0.158    0.082 
 3747.50    0.237    0.212    0.310    4.020  -19.821  -999.25    2.168  -999.25    0.723    3.919    4.052    3.349    0.617    0.059    0.153    0.084 
 3747.60    0.222    0.209    0.308    3.922  -19.838  -999.25    2.198  -999.25    0.690    3.853    4.029    3.337    0.618    0.065    0.144    0.083 
 3747.70    0.204    0.216    0.306    3.852  -19.880  -999.25    2.186  -999.25    0.682    3.787    4.006    3.183    0.617    0.069    0.148    0.080 
 3747.80    0.196    0.232    0.309    3.816  -19.880  -999.25    2.110  -999.25    0.692    3.731    3.931    3.060    0.623    0.071    0.160    0.077 
 3747.90    0.200    0.230    0.312    3.791  -19.880  -999.25    2.107  -999.25    0.702    3.721    3.858    3.041    0.621    0.069    0.162    0.077 
 3748.00    0.192    0.239    0.315    3.756  -19.879  -999.25    2.088  -999.25    0.694    3.670    3.835    3.023    0.617    0.073    0.166    0.076 
 3748.10    0.193    0.243    0.319    3.706  -19.879  -999.25    2.015  -999.25    0.682    3.639    3.811    2.988    0.613    0.077    0.166    0.076 
 3748.20    0.182    0.249    0.327    3.685  -19.866  -999.25    1.902  -999.25    0.693    3.624    3.811    2.935    0.611    0.076    0.173    0.074 
 3748.30    0.183    0.262    0.337    3.736  -19.828  -999.25    1.791  -999.25    0.721    3.629    3.811    2.882    0.605    0.073    0.189    0.073 
 3748.40    0.189    0.267    0.340    3.781  -19.794  -999.25    1.719  -999.25    0.756    3.681    3.845    2.917    0.592    0.065    0.202    0.074 
 3748.50    0.201    0.268    0.338    3.842  -19.760  -999.25    1.592  -999.25    0.812    3.742    3.880    3.003    0.584    0.051    0.218    0.076 
 3748.60    0.217    0.263    0.335    3.918  -19.701  -999.25    1.626  -999.25    0.818    3.844    3.890    3.131    0.586    0.048    0.216    0.079 
 3748.70    0.227    0.269    0.335    4.003  -19.638  -999.25    1.648  -999.25    0.809    3.869    3.902    3.255    0.588    0.051    0.218    0.082 
 3748.80    0.222    0.281    0.344    4.109  -19.549  -999.25    1.658  -999.25    0.803    3.930    3.921    3.289    0.592    0.055    0.226    0.082 
 3748.90    0.228    0.286    0.350    4.225  -19.523  -999.25    1.655  -999.25    0.814    3.925    3.939    3.293    0.587    0.053    0.232    0.082 
 3749.00    0.229    0.281    0.347    4.245  -19.447  -999.25    1.656  -999.25    0.802    3.903    3.928    3.326    0.577    0.056    0.226    0.083 
 3749.10    0.227    0.272    0.340    4.235  -19.346  -999.25    1.685  -999.25    0.773    3.870    3.916    3.327    0.578    0.062    0.210    0.083 
 3749.20    0.230    0.260    0.332    4.180  -19.346  -999.25    1.767  -999.25    0.744    3.814    3.858    3.328    0.581    0.066    0.194    0.083 
 3749.30    0.237    0.254    0.329    4.029  -19.257  -999.25    1.895  -999.25    0.715    3.758    3.799    3.370    0.588    0.072    0.182    0.084 
 3749.40    0.247    0.256    0.333    3.807  -19.143  -999.25    2.009  -999.25    0.689    3.748    3.771    3.448    0.597    0.079    0.176    0.086 
