~Version information
  VERS.                            1.20: CWLS LAS  -  VERSION 1.20
  WRAP.                              NO: One line per depth step
~Well information
# MNEM.UNIT
# ====.================================:===================
  STRT.M                        3666.30: First depth in file
  STOP.M                        4629.70: Last depth in file
  STEP.M                           0.10: Depth increment
  NULL.                         -999.25: Null values
  COMP.                         COMPANY:
  WELL.                            WELL: Well-001
  FLD .                           FIELD:
  CNTY.                          COUNTY:
  STAT.                           STATE: RUSSIA
  SRVC.                 SERVICE COMPANY:
~Parametr information block
# MNEM.UNIT
# ====.================================:===================
~Other information
# ------------------------- REMARKS  AREA ------------------
~Curve information
# MNEM.UNIT
# ====.================================:===================
  DEPT.M                               : Depth curve
  VSH .dec                             : VSH
  PHIE.dec                             : PHIE
  PHIT.dec                             : PHIT
  RL  .Ohmm                            : RL
  SP  .mV                              : SP
  NGL (23.09.86).c.u.                  : NGL (23.09.86)
  LL  .Ohmm                            : LL
  GR (23.09.86).mkR/h                  : GR (23.09.86)
  SW  .dec                             : SW
  RL4 .Ohmm                            : RL4
  RL8 .Ohmm                            : RL8
  GR (17.06.17).mkR/h                  : GR (17.06.17)
  NGL.c.u.                             : NGL 
  vHD.dec                              : vhd
  bvw.dec                              : BVW
  CBW .dec                             :
~ASCII       VSH     PHIE     PHIT       RL       SP    NGL (23.     LL   GR (23.0    SW      RL4      RL8     GR (17.0  NGL       VHD    BVW      CBW
# ...
 3869.10    0.336    0.164    0.282    4.217  -24.150    0.594    4.392    5.347    0.738    3.884    4.213    4.386    0.650    0.043    0.121    0.106 
 3869.20    0.318    0.152    0.276    4.368  -24.036    0.589    4.377    5.405    0.699    4.025    4.251    4.321    0.654    0.046    0.106    0.105 
 3869.30    0.331    0.142    0.273    4.570  -23.884    0.582    4.280    5.487    0.697    4.182    4.329    4.300    0.665    0.043    0.099    0.105 
 3869.40    0.339    0.143    0.272    4.999  -23.757    0.579    3.941    5.565    0.720    4.243    4.407    4.280    0.674    0.040    0.103    0.104 
 3869.50    0.359    0.148    0.273    5.217  -23.707    0.574    2.777    5.639    0.858    4.298    4.526    4.379    0.676    0.021    0.127    0.106 
 3869.60    0.344    0.157    0.273    5.444  -23.681    0.579    2.389    5.762    0.889    4.405    4.645    4.500    0.675    0.017    0.139    0.109 
 3869.70    0.353    0.157    0.275    5.701  -23.656    0.587    1.921    5.854    0.979    4.511    4.756    4.520    0.676    0.003    0.154    0.109 
 3869.80    0.369    0.164    0.281    5.873  -23.656    0.588    1.854    5.919    1.000    4.586    4.867    4.494    0.675    0.000    0.164    0.109 
 3869.90    0.394    0.170    0.287    5.868  -23.707    0.585    1.861    6.330    1.000    4.476    5.027    4.607    0.668    0.000    0.170    0.111 
 3870.00    0.417    0.172    0.292    5.706  -23.758    0.579    1.862    6.479    1.000    4.189    5.186    4.790    0.656    0.000    0.172    0.115 
 3870.10    0.446    0.171    0.297    5.342  -23.886    0.579    1.818    6.448    1.000    3.387    5.260    4.999    0.647    0.000    0.171    0.120 
 3870.20    0.480    0.177    0.301    5.075  -24.000    0.586    1.814    6.193    1.000    3.341    5.335    5.231    0.639    0.000    0.177    0.125 
 3870.30    0.472    0.181    0.306    4.605  -24.191    0.589    1.798    6.197    1.000    3.276    5.335    5.474    0.632    0.000    0.181    0.130 
 3870.40    0.423    0.180    0.306    4.539  -24.242    0.594    1.861    6.225    1.000    3.221    5.335    5.562    0.625    0.000    0.180    0.132 
 3870.50    0.411    0.170    0.305    4.367  -24.598    0.600    1.937    6.282    1.000    3.171    4.934    5.346    0.620    0.000    0.170    0.128 
 3870.60    0.453    0.161    0.306    4.307  -24.649    0.602    2.054    6.317    1.000    3.110    4.535    5.101    0.623    0.000    0.161    0.122 
 3870.70    0.494    0.154    0.306    4.196  -24.700    0.608    2.232    6.374    1.000    3.045    4.290    5.236    0.624    0.000    0.154    0.125 
 3870.80    0.504    0.142    0.304    4.079  -24.751    0.616    2.422    6.437    1.000    3.136    4.046    5.543    0.621    0.000    0.142    0.132 
 3870.90    0.508    0.136    0.299    3.549  -24.751    0.622    2.667    6.471    1.000    3.222    3.823    5.691    0.623    0.000    0.136    0.135 
 3871.00    0.536    0.143    0.295    3.549  -24.713    0.611    3.079    6.505    1.000    3.353    3.601    5.732    0.627    0.000    0.143    0.136 
 3871.10    0.539    0.148    0.293    3.594  -24.625    0.601    3.403    6.543    1.000    3.505    3.634    5.823    0.635    0.000    0.148    0.138 
 3871.20    0.545    0.139    0.291    3.695  -24.523    0.598    3.528    6.585    1.000    3.611    3.668    5.910    0.641    0.000    0.139    0.140 
 3871.30    0.565    0.123    0.289    3.751  -24.397    0.593    3.418    6.600    1.000    3.773    3.749    5.937    0.643    0.000    0.123    0.141 
 3871.40    0.600    0.112    0.284    3.857  -24.270    0.587    3.394    6.608    1.000    3.939    3.831    6.012    0.646    0.000    0.112    0.142 
 3871.50    0.660    0.104    0.278    3.958  -24.117    0.582    3.401    6.600    1.000    4.055    3.901    6.170    0.652    0.000    0.104    0.146 
 3871.60    0.707    0.092    0.276    4.109  -23.978    0.576    3.320    6.597    1.000    4.374    4.004    6.461    0.661    0.000    0.092    0.152 
 3871.70    0.689    0.088    0.278    4.574  -23.838    0.573    2.527    6.566    1.000    4.116    4.099    6.770    0.670    0.000    0.088    0.159 
 3871.80    0.663    0.090    0.281    4.735  -23.610    0.570    2.292    6.534    1.000    3.849    4.110    6.845    0.670    0.000    0.090    0.161 
 3871.90    0.637    0.087    0.281    4.892  -23.102    0.565    2.118    6.505    1.000    3.698    4.120    6.734    0.664    0.000    0.087    0.158 
 3872.00    0.594    0.076    0.282    5.048  -22.772    0.568    1.954    6.286    1.000    3.537    4.047    6.587    0.660    0.000    0.076    0.155 
 3872.10    0.576    0.060    0.285    5.109  -22.568    0.576    1.704    6.249    1.000    3.335    3.973    6.373    0.661    0.000    0.060    0.150 
 3872.20    0.572    0.048    0.291    5.290  -22.416    0.581    1.641    6.192    1.000    3.109    3.848    6.186    0.659    0.000    0.048    0.146 
 3872.30    0.556    0.051    0.296    5.336  -22.365    0.588    1.676    6.120    1.000    3.028    3.721    6.121    0.649    0.000    0.051    0.145 
 3872.40    0.548    0.061    0.298    5.235  -22.289    0.595    1.777    6.149    1.000    2.958    3.595    6.062    0.639    0.000    0.061    0.143 
 3872.50    0.517    0.073    0.300    5.103  -22.188    0.596    1.935    6.177    1.000    2.963    3.470    5.994    0.635    0.000    0.073    0.142 
 3872.60    0.478    0.087    0.301    4.947  -22.188    0.591    2.076    6.234    1.000    3.014    3.358    5.882    0.631    0.000    0.087    0.139 
 3872.70    0.482    0.098    0.304    4.730  -22.205    0.582    2.214    6.266    1.000    3.175    3.247    5.683    0.628    0.000    0.098    0.135 
 3872.80    0.485    0.104    0.306    4.568  -22.222    0.576    2.388    6.297    1.000    3.423    3.243    5.583    0.627    0.000    0.104    0.133 
 3872.90    0.457    0.109    0.304    4.457  -22.265    0.571    2.523    6.326    1.000    3.594    3.240    5.602    0.623    0.000    0.109    0.133 
 3873.00    0.439    0.109    0.300    4.376  -22.291    0.565    2.538    6.386    1.000    3.695    3.206    5.532    0.622    0.000    0.109    0.132 
 3873.10    0.436    0.112    0.295    4.199  -22.342    0.562    2.582    6.435    1.000    3.802    3.173    5.375    0.627    0.000    0.112    0.128 
 3873.20    0.441    0.120    0.292    3.613  -22.342    0.559    2.693    6.481    1.000    3.958    3.188    5.283    0.635    0.000    0.120    0.126 
 3873.30    0.447    0.122    0.290    3.724  -22.355    0.558    2.867    6.458    0.978    4.064    3.203    5.292    0.642    0.003    0.120    0.126 
 3873.40    0.461    0.120    0.290    4.002  -22.368    0.556    2.938    6.181    1.000    4.226    3.211    5.340    0.646    0.000    0.120    0.127 
 3873.50    0.449    0.126    0.292    4.158  -22.368    0.555    3.058    5.958    0.972    4.377    3.218    5.421    0.647    0.004    0.123    0.129 
 3873.60    0.420    0.138    0.296    4.380  -22.355    0.553    3.070    6.043    0.905    4.489    3.301    5.430    0.646    0.013    0.125    0.129 
 3873.70    0.384    0.144    0.297    4.481  -22.318    0.552    3.055    6.135    0.841    4.620    3.381    5.258    0.639    0.023    0.121    0.126 
 3873.80    0.361    0.144    0.297    4.537  -22.318    0.555    2.993    6.224    0.809    4.635    3.459    4.973    0.634    0.027    0.116    0.119 
 3873.90    0.368    0.142    0.297    4.648  -22.267    0.561    2.772    6.261    0.830    4.459    3.538    4.711    0.635    0.024    0.118    0.114 
 3874.00    0.372    0.138    0.296    4.698  -22.191    0.566    2.327    6.321    0.882    4.313    3.611    4.640    0.634    0.016    0.122    0.112 
 3874.10    0.376    0.137    0.296    4.794  -22.191    0.569    2.013    6.352    0.931    4.152    3.686    4.688    0.634    0.009    0.127    0.113 
 3874.20    0.360    0.144    0.297    4.789  -22.103    0.574    1.847    6.390    0.957    4.001    3.792    4.724    0.637    0.006    0.138    0.114 
