~Version information
  VERS.                            1.20: CWLS LAS  -  VERSION 1.20
  WRAP.                              NO: One line per depth step
~Well information
# MNEM.UNIT
# ====.================================:===================
  STRT.M                        3666.30: First depth in file
  STOP.M                        4629.70: Last depth in file
  STEP.M                           0.10: Depth increment
  NULL.                         -999.25: Null values
  COMP.                         COMPANY:
  WELL.                            WELL: Well-001
  FLD .                           FIELD:
  CNTY.                          COUNTY:
  STAT.                           STATE: RUSSIA
  SRVC.                 SERVICE COMPANY:
~Parametr information block
# MNEM.UNIT
# ====.================================:===================
~Other information
# ------------------------- REMARKS  AREA ------------------
~Curve information
# MNEM.UNIT
# ====.================================:===================
  DEPT.M                               : Depth curve
  VSH .dec                             : VSH
  PHIE.dec                             : PHIE
  PHIT.dec                             : PHIT
  RL  .Ohmm                            : RL
  SP  .mV                              : SP
  NGL (23.09.86).c.u.                  : NGL (23.09.86)
  LL  .Ohmm                            : LL
  GR (23.09.86).mkR/h                  : GR (23.09.86)
  SW  .dec                             : SW
  RL4 .Ohmm                            : RL4
  RL8 .Ohmm                            : RL8
  GR (17.06.17).mkR/h                  : GR (17.06.17)
  NGL.c.u.                             : NGL 
  vHD.dec                              : vhd
  bvw.dec                              : BVW
  CBW .dec                             :
~ASCII       VSH     PHIE     PHIT       RL       SP    NGL (23.     LL   GR (23.0    SW      RL4      RL8     GR (17.0  NGL       VHD    BVW      CBW
# ...
 4555.50    0.807    0.032    0.282    8.027  -15.039    0.652    2.903    6.048    1.000    7.844    7.689    7.185    0.674    0.000    0.032    0.168 
 4555.60    0.840    0.044    0.285    7.748  -15.013    0.649    2.732    6.002    1.000    7.817    7.439    7.337    0.672    0.000    0.044    0.171 
 4555.70    0.874    0.055    0.286    6.886  -15.046    0.643    2.719    6.037    1.000    7.817    7.191    7.370    0.661    0.000    0.055    0.172 
 4555.80    0.907    0.066    0.286    6.785  -15.079    0.642    2.831    6.101    1.000    7.816    6.923    7.489    0.660    0.000    0.066    0.175 
 4555.90    0.914    0.078    0.285    6.925  -15.188    0.642    2.979    6.155    1.000    7.789    6.654    7.708    0.659    0.000    0.078    0.180 
 4556.00    0.915    0.086    0.282    7.065  -15.301    0.643    3.175    6.184    1.000    7.763    6.540    7.911    0.662    0.000    0.086    0.184 
 4556.10    0.917    0.078    0.280    7.371  -15.440    0.646    3.375    6.248    1.000    7.711    6.426    8.021    0.669    0.000    0.078    0.186 
 4556.20    0.918    0.070    0.279    7.676  -15.717    0.647    3.553    6.280    1.000    7.711    6.426    8.080    0.678    0.000    0.070    0.188 
 4556.30    0.919    0.062    0.280    8.006  -16.246    0.647    3.747    6.318    1.000    7.672    6.426    8.223    0.680    0.000    0.062    0.191 
 4556.40    0.921    0.054    0.280    8.311  -16.776    0.647    3.821    5.977    1.000    7.607    6.389    8.451    0.683    0.000    0.054    0.196 
 4556.50    0.922    0.042    0.279    8.566  -17.508    0.647    3.847    5.911    1.000    7.607    6.351    8.667    0.684    0.000    0.042    0.201 
 4556.60    0.925    0.038    0.277    8.820  -18.492    0.646    3.969    5.899    1.000    7.606    6.371    8.806    0.682    0.000    0.038    0.204 
 4556.70    0.919    0.035    0.273    9.074  -19.022    0.646    4.048    5.917    1.000    7.604    6.391    8.873    0.681    0.000    0.035    0.205 
 4556.80    0.909    0.033    0.271    9.100  -19.552    0.645    4.209    5.934    1.000    7.604    6.411    8.891    0.686    0.000    0.033    0.206 
 4556.90    0.899    0.031    0.269    9.405  -20.082    0.643    4.444    5.966    1.000    7.653    6.430    8.924    0.693    0.000    0.031    0.206 
 4557.00    0.887    0.029    0.268    9.711  -20.612    0.641    4.602    5.994    1.000    7.702    6.452    8.922    0.699    0.000    0.029    0.206 
 4557.10    0.889    0.027    0.270    9.762  -21.318    0.642    4.865    6.026    1.000    7.752    6.472    8.969    0.706    0.000    0.027    0.207 
 4557.20    0.892    0.025    0.270    9.826  -21.848    0.643    5.088    6.053    1.000    7.801    6.472    9.093    0.713    0.000    0.025    0.208 
 4557.30    0.895    0.029    0.269    9.915  -22.403    0.647    5.341    6.119    1.000    7.825    6.472    9.161    0.716    0.000    0.029    0.208 
 4557.40    0.900    0.038    0.268    9.915  -23.110    0.649    5.391    6.120    1.000    7.724    6.435    9.172    0.721    0.000    0.038    0.207 
 4557.50    0.897    0.050    0.267    9.929  -23.639    0.650    4.816    5.322    1.000    7.609    6.397    9.241    0.723    0.000    0.050    0.206 
 4557.60    0.889    0.046    0.264    9.942  -24.194    0.650    4.310    5.097    1.000    7.444    6.388    9.202    0.718    0.000    0.046    0.204 
 4557.70    0.880    0.039    0.261    9.943  -24.573    0.650    3.951    4.982    1.000    7.419    6.379    8.924    0.714    0.000    0.039    0.201 
 4557.80    0.872    0.032    0.257    9.956  -24.850    0.650    3.677    4.855    1.000    7.089    6.370    8.873    0.718    0.000    0.032    0.198 
 4557.90    0.864    0.025    0.253    9.969  -25.354    0.649    3.364    4.672    1.000    6.785    6.362    8.999    0.721    0.000    0.025    0.196 
 4558.00    0.855    0.027    0.250   10.020  -25.632    0.647    3.102    4.513    1.000    6.482    6.420    9.045    0.724    0.000    0.027    0.193 
 4558.10    0.847    0.030    0.244   10.160  -26.111    0.653    3.180    4.482    1.000    6.279    6.479    8.970    0.726    0.000    0.030    0.189 
 4558.20    0.838    0.038    0.238   10.300  -26.363    0.664    3.515    4.450    1.000    6.253    6.508    8.798    0.734    0.000    0.038    0.184 
 4558.30    0.669    0.037    0.231   10.580  -26.943    0.669    3.874    4.386    1.000    6.303    6.537    8.568    0.744    0.000    0.037    0.180 
 4558.40    0.645    0.031    0.225   10.708  -27.195    0.674    4.326    4.355    1.000    6.352    6.606    8.245    0.755    0.000    0.031    0.175 
 4558.50    0.608    0.026    0.219   10.835  -27.473    0.678    4.764    4.295    1.000    6.452    6.673    8.036    0.765    0.000    0.026    0.170 
 4558.60    0.639    0.021    0.212   11.115  -27.952    0.683    4.878    4.237    0.750    6.552    6.866    8.058    0.773    0.005    0.016    0.165 
 4558.70    0.654    0.013    0.208   11.394  -28.431    0.687    4.776    4.179    0.500    6.752    7.060    8.086    0.783    0.006    0.006    0.162 
 4558.80    0.625    0.014    0.206   11.878  -28.759    0.690    5.027    4.125    0.492    6.777    7.253    7.940    0.797    0.007    0.007    0.161 
 4558.90    0.601    0.018    0.206   12.132  -29.263    0.696    6.100    4.090    0.483    7.053    7.447    7.632    0.814    0.009    0.009    0.161 
 4559.00    0.610    0.022    0.205   12.615  -29.515    0.707    7.146    4.055    0.475    7.166    7.678    7.196    0.831    0.012    0.011    0.160 
 4559.10    0.660    0.027    0.202   13.148  -29.767    0.739    8.046    4.026    0.480    7.304    7.909    6.806    0.849    0.014    0.013    0.158 
 4559.20    0.653    0.034    0.195   13.733  -30.020    0.737    8.498    3.966    0.485    7.580    8.006    6.602    0.868    0.018    0.017    0.153 
 4559.30    0.656    0.032    0.187   13.987  -30.297    0.735    8.455    3.888    0.490    7.654    8.104    6.482    0.895    0.016    0.016    0.147 
 4559.40    0.594    0.030    0.184   14.520  -30.574    0.733    8.278    3.642    0.495    7.653    8.142    6.416    0.930    0.015    0.015    0.145 
 4559.50    0.596    0.029    0.184   14.775  -30.826    0.731    7.807    3.206    0.500    7.652    8.181    6.508    0.945    0.014    0.014    0.145 
 4559.60    0.602    0.028    0.185   15.283  -31.330    0.730    6.374    3.249    0.500    7.652    8.181    6.588    0.948    0.014    0.014    0.146 
 4559.70    0.622    0.026    0.186   16.400  -31.583    0.727    4.731    3.293    0.500    7.625    8.183    6.502    0.947    0.013    0.013    0.147 
 4559.80    0.617    0.025    0.188   17.441  -32.112    0.738    6.440    3.336    0.500    7.650    8.241    6.396    0.949    0.013    0.013    0.148 
 4559.90    0.600    0.038    0.189   18.026  -32.364    0.743    9.235    3.409    0.500    7.724    8.300    6.329    0.956    0.019    0.019    0.148 
 4560.00    0.587    0.013    0.188   18.610  -32.919    0.748    8.509    3.441    0.500    7.799    8.300    6.354    0.963    0.006    0.006    0.148 
 4560.10    0.557    0.020    0.188   19.169  -33.197    0.752    7.781    3.502    0.500    7.849    8.300    6.532    0.981    0.010    0.010    0.148 
 4560.20    0.580    0.028    0.188   19.423  -33.726    0.756    9.338    3.562    0.488    7.986    8.398    6.633    1.006    0.014    0.014    0.147 
 4560.30    0.616    0.035    0.189   19.221  -33.802    0.760   10.153    3.377    0.475    8.124    8.494    6.643    1.035    0.019    0.017    0.148 
 4560.40    0.610    0.043    0.191   18.688  -34.180    0.768   10.676    3.262    0.475    8.349    8.669    6.554    1.049    0.023    0.020    0.150 
 4560.50    0.557    0.049    0.193   18.587  -34.356    0.772   10.438    3.187    0.475    8.487    8.843    6.346    1.051    0.026    0.023    0.149 
 4560.60    0.502    0.043    0.196   18.131  -34.532    0.774   10.742    3.118    0.475    8.625    8.930    6.254    1.048    0.023    0.020    0.148 
