~Version information
  VERS.                            1.20: CWLS LAS  -  VERSION 1.20
  WRAP.                              NO: One line per depth step
~Well information
# MNEM.UNIT
# ====.================================:===================
  STRT.M                        3666.30: First depth in file
  STOP.M                        4629.70: Last depth in file
  STEP.M                           0.10: Depth increment
  NULL.                         -999.25: Null values
  COMP.                         COMPANY:
  WELL.                            WELL: Well-001
  FLD .                           FIELD:
  CNTY.                          COUNTY:
  STAT.                           STATE: RUSSIA
  SRVC.                 SERVICE COMPANY:
~Parametr information block
# MNEM.UNIT
# ====.================================:===================
~Other information
# ------------------------- REMARKS  AREA ------------------
~Curve information
# MNEM.UNIT
# ====.================================:===================
  DEPT.M                               : Depth curve
  VSH .dec                             : VSH
  PHIE.dec                             : PHIE
  PHIT.dec                             : PHIT
  RL  .Ohmm                            : RL
  SP  .mV                              : SP
  NGL (23.09.86).c.u.                  : NGL (23.09.86)
  LL  .Ohmm                            : LL
  GR (23.09.86).mkR/h                  : GR (23.09.86)
  SW  .dec                             : SW
  RL4 .Ohmm                            : RL4
  RL8 .Ohmm                            : RL8
  GR (17.06.17).mkR/h                  : GR (17.06.17)
  NGL.c.u.                             : NGL 
  vHD.dec                              : vhd
  bvw.dec                              : BVW
  CBW .dec                             :
~ASCII       VSH     PHIE     PHIT       RL       SP    NGL (23.     LL   GR (23.0    SW      RL4      RL8     GR (17.0  NGL       VHD    BVW      CBW
# ...
 4305.90    0.240    0.164    0.258    6.314  -36.573    0.724    2.860    3.986    0.841    4.493    3.768    3.426    0.701    0.026    0.138    0.085 
 4306.00    0.234    0.166    0.260    6.174  -36.598    0.728    3.343    3.963    0.758    4.516    3.872    3.396    0.695    0.040    0.126    0.085 
 4306.10    0.201    0.170    0.260    6.059  -36.649    0.733    4.211    3.937    0.654    4.539    3.884    3.228    0.699    0.059    0.111    0.081 
 4306.20    0.207    0.172    0.262    5.918  -36.699    0.737    4.545    3.888    0.625    4.594    3.895    3.102    0.693    0.065    0.108    0.078 
 4306.30    0.227    0.179    0.258    5.663  -36.750    0.738    3.104    3.815    0.776    4.938    3.877    3.188    0.694    0.040    0.139    0.080 
 4306.40    0.270    0.188    0.252    5.548  -36.864    0.739    2.914    3.680    0.882    4.670    3.857    3.415    0.701    0.022    0.166    0.085 
 4306.50    0.264    0.190    0.246    5.357  -37.003    0.738    2.602    3.581    0.952    4.494    3.866    3.635    0.710    0.009    0.181    0.090 
 4306.60    0.226    0.181    0.241    5.242  -41.670    0.737    2.323    3.523    0.971    4.166    3.874    3.619    0.718    0.005    0.176    0.090 
 4306.70    0.231    0.160    0.235    5.025  -42.202    0.738    2.323    3.454    0.999    3.989    3.912    3.425    0.726    0.000    0.160    0.085 
 4306.80    0.231    0.156    0.229    4.923  -43.140    0.739    2.741    3.402    0.953    3.843    3.951    3.333    0.733    0.007    0.149    0.083 
 4306.90    0.236    0.164    0.224    4.770  -44.966    0.740    3.105    3.266    0.935    3.726    4.032    3.350    0.743    0.011    0.153    0.084 
 4307.00    0.251    0.158    0.218    4.642  -45.803    0.742    3.421    3.037    0.940    3.732    4.113    3.373    0.752    0.010    0.148    0.084 
 4307.10    0.251    0.151    0.211    4.591  -56.405    0.746    3.685    2.887    0.948    3.792    4.133    3.456    0.759    0.008    0.143    0.086 
 4307.20    0.247    0.143    0.209    4.489  -58.155    0.763    4.029    2.802    0.934    3.838    4.152    3.529    0.770    0.009    0.134    0.088 
 4307.30    0.218    0.134    0.209    4.260  -58.738    0.774    4.277    2.407    0.844    3.899    4.117    3.530    0.782    0.021    0.113    0.088 
 4307.40    0.164    0.126    0.209    4.132  -59.017    0.787    4.472    2.290    0.746    3.954    4.082    3.446    0.786    0.032    0.094    0.086 
 4307.50    0.120    0.122    0.208    4.107  -59.321    0.803    4.633    2.258    0.686    4.061    4.044    3.197    0.784    0.038    0.084    0.080 
 4307.60    0.125    0.133    0.209    4.056  -59.854    0.817    4.514    2.226    0.699    4.131    4.006    2.756    0.785    0.040    0.093    0.071 
 4307.70    0.122    0.152    0.211    3.980  -60.132    0.822    3.812    2.194    0.748    4.157    3.933    2.272    0.788    0.038    0.114    0.060 
 4307.80    0.112    0.166    0.213    4.044  -60.665    0.828    2.884    2.162    0.835    4.157    3.860    2.084    0.787    0.027    0.138    0.056 
 4307.90    0.116    0.164    0.212    4.108  -60.969    0.832    2.377    2.094    0.919    4.111    3.733    2.100    0.783    0.013    0.151    0.056 
 4308.00    0.124    0.168    0.209    4.160  -61.248    0.836    2.231    2.096    0.971    4.051    3.607    2.015    0.779    0.005    0.163    0.054 
 4308.10    0.129    0.173    0.205    4.275  -61.526    0.838    2.106    2.105    1.000    3.990    3.464    1.973    0.776    0.000    0.173    0.053 
 4308.20    0.127    0.173    0.202    4.391  -61.881    0.844    1.970    2.110    1.000    3.839    3.322    2.053    0.780    0.000    0.173    0.055 
 4308.30    0.138    0.168    0.202    4.493  -62.261    0.849    1.832    2.117    1.000    3.627    3.144    2.135    0.791    0.000    0.168    0.057 
 4308.40    0.131    0.161    0.204    4.570  -62.642    0.828    2.170    2.111    1.000    3.405    2.967    2.149    0.797    0.000    0.161    0.057 
 4308.50    0.131    0.159    0.210    4.571  -62.844    0.826    2.542    2.096    0.945    3.244    2.952    2.214    0.802    0.009    0.151    0.059 
 4308.60    0.148    0.153    0.214    4.571  -62.844    0.826    2.853    2.079    0.884    3.032    2.936    2.246    0.799    0.018    0.135    0.059 
 4308.70    0.148    0.156    0.214    4.546  -62.286    0.826    2.744    2.065    0.900    3.037    2.918    2.200    0.792    0.016    0.141    0.058 
 4308.80    0.129    0.160    0.213    4.418  -60.358    0.824    2.510    2.047    0.918    3.097    2.898    2.231    0.784    0.013    0.147    0.059 
 4308.90    0.131    0.162    0.211    4.316  -59.267    0.822    2.283    2.013    0.964    3.158    2.883    2.339    0.775    0.006    0.156    0.061 
 4309.00    0.123    0.162    0.207    4.282  -58.912    0.820    2.080    1.981    1.000    3.158    2.868    2.408    0.775    0.000    0.162    0.063 
 4309.10    0.128    0.167    0.203    4.249  -58.861    0.816    1.960    1.941    1.000    3.113    2.865    2.287    0.778    0.000    0.167    0.060 
 4309.20    0.118    0.167    0.204    4.215  -58.607    0.818    1.896    1.969    1.000    3.062    2.860    2.187    0.782    0.000    0.167    0.058 
 4309.30    0.119    0.164    0.205    4.266  -58.353    0.822    1.924    2.001    1.000    2.957    2.818    2.147    0.789    0.000    0.164    0.057 
 4309.40    0.127    0.158    0.204    4.318  -57.845    0.826    1.928    2.033    1.000    2.896    2.776    2.125    0.798    0.000    0.158    0.057 
 4309.50    0.101    0.159    0.204    4.344  -57.262    0.827    1.910    2.065    1.000    2.790    2.718    2.092    0.798    0.000    0.159    0.056 
 4309.60    0.102    0.163    0.206    4.459  -56.678    0.823    2.012    2.129    1.000    2.755    2.661    2.041    0.793    0.000    0.163    0.055 
 4309.70    0.108    0.160    0.202    4.600  -55.283    0.820    2.172    2.231    0.985    2.795    2.627    2.099    0.794    0.002    0.158    0.056 
 4309.80    0.122    0.162    0.199    4.686  -53.507    0.817    2.478    2.358    0.997    2.841    2.592    1.985    0.800    0.001    0.161    0.054 
 4309.90    0.132    0.169    0.199    4.771  -52.416    0.805    2.725    2.454    0.949    2.937    2.569    1.851    0.792    0.009    0.160    0.051 
 4310.00    0.136    0.168    0.200    4.934  -51.756    0.800    2.930    2.626    0.926    2.983    2.546    1.955    0.797    0.012    0.155    0.053 
 4310.10    0.148    0.152    0.202    5.049  -50.716    0.801    2.947    2.773    0.923    3.048    2.589    2.116    0.809    0.012    0.140    0.056 
 4310.20    0.132    0.152    0.206    5.165  -48.915    0.802    2.829    2.865    0.928    3.144    2.632    2.222    0.805    0.011    0.141    0.059 
 4310.30    0.133    0.150    0.210    5.190  -45.896    0.802    2.452    2.987    0.955    3.195    2.709    2.284    0.806    0.007    0.143    0.060 
 4310.40    0.136    0.150    0.216    5.421  -44.526    0.798    2.358    3.118    0.945    3.246    2.786    2.370    0.800    0.008    0.142    0.062 
 4310.50    0.154    0.153    0.221    5.536  -41.482    0.794    2.554    3.271    0.909    3.306    2.859    2.316    0.790    0.014    0.139    0.061 
 4310.60    0.153    0.162    0.227    5.703  -40.594    0.788    3.193    3.419    0.806    3.362    2.933    2.226    0.781    0.031    0.130    0.059 
 4310.70    0.150    0.168    0.233    5.908  -40.011    0.778    3.933    3.474    0.705    3.413    3.052    2.282    0.768    0.050    0.118    0.060 
 4310.80    0.145    0.167    0.239    5.985  -39.478    0.764    4.300    3.533    0.654    3.463    3.173    2.412    0.761    0.058    0.110    0.063 
 4310.90    0.146    0.170    0.245    6.216  -38.158    0.753    4.607    3.606    0.620    3.514    3.246    2.486    0.750    0.065    0.105    0.065 
 4311.00    0.151    0.177    0.253    6.241  -37.194    0.747    4.439    3.970    0.617    3.570    3.319    2.444    0.737    0.068    0.109    0.064 
